SITE NUMBER,SITE NAME,SITE ALIAS,STREET ADDRESS,TOWN,COUNTY,PROGRAM,AREA-ACRES,IC CONTROLS,STATUS,SUBSTATUS,STATUS DATE,LATITUDE,LONGITUDE,x,y
REM00865,CLARA JOHNSON PROPERTY,,OFF HARRIS ROAD,STOCKTON SPRINGS,WALDO,UNCONTROLLED SITES,,FALSE,TRANSFERRED TO OTHER DIVISION,OTHER,4/6/2009,44.50621696,-68.90392659,-68.90392658999997,44.506216960000074
REM00876,"MILMAC, INC.",,BANGOR ROAD,UNITY,WALDO,UNCONTROLLED SITES,,FALSE,REMEDY IN PLACE: CLOSED,UNDERTAKING POST-CLOSURE OBLIGATIONS,5/20/2008,44.61813513,-69.33560086,-69.33560085999994,44.61813513000004
REM00878,VAN BUREN-MADAWASKA CORP,,ROUTE 1,VAN BUREN,AROOSTOOK,UNCONTROLLED SITES,25,FALSE,INVESTIGATION STAGE,ONGOING,5/15/1990,47.1892235,-67.95585821,-67.95585820999997,47.189223500000026
REM00879,RRAS,,ROUTE 32,VASSALBORO,KENNEBEC,UNCONTROLLED SITES,,FALSE,COMPLAINT INVESTIGATED,REVIEWING PRELIMINARY SITE INFORMATION,4/5/2009,44.45857894,-69.61227108,-69.61227107999997,44.45857894000005
REM00893,LEWIS WOLMAN CO.,,41 HIGH STREET,WATERVILLE,KENNEBEC,UNCONTROLLED SITES,2,FALSE,REMEDY IN PLACE: CLOSED,UNDERTAKING POST-CLOSURE OBLIGATIONS,3/14/2006,44.5634901,-69.63136817,-69.63136816999997,44.56349010000008
REM00895,BROOKSIDE SCHOOL,DIS#219,DRUMMOND AVENUE,WATERVILLE,KENNEBEC,UNCONTROLLED SITES,,FALSE,TRANSFERRED TO OTHER DIVISION,OTHER,4/5/2009,44.566715,-69.632763,-69.63276299999995,44.566715000000045
REM00896,WATERVILLE GAS WORKS,,ROUTE 210 & COLLEGE AVE,WATERVILLE,KENNEBEC,UNCONTROLLED SITES,1.4,TRUE,REMEDY IN PLACE: CLOSED,UNDERTAKING POST-CLOSURE OBLIGATIONS,10/31/2010,44.57395591,-69.61300185,-69.61300184999993,44.57395591000005
REM00896,WATERVILLE GAS WORKS,,ROUTE 210 & COLLEGE AVE,WATERVILLE,KENNEBEC,VRAP,1.4,TRUE,REMEDY IN PLACE: CLOSED,UNDERTAKING POST-CLOSURE OBLIGATIONS,10/31/2010,44.57395591,-69.61300185,-69.61300184999993,44.57395591000005
REM00910,SCOTT PAPER COMPANY,KRDP (KENNEBEC RIVER DEVELOPMENT PARK),MILL ROAD,WINSLOW,KENNEBEC,UNCONTROLLED SITES,,TRUE,REMEDY IN PLACE: CLOSED,UNDERTAKING POST-CLOSURE OBLIGATIONS,9/14/2016,44.5551531,-69.62397684,-69.62397683999995,44.55515310000004
REM00911,WINSLOW TOWN LANDFILL,REYNOLDS DUMP;,REYNOLDS ROAD,WINSLOW,KENNEBEC,UNCONTROLLED SITES,,FALSE,REMEDIATION STAGE,NEED (AWAITING RESOURCES),2/16/2017,44.50129721,-69.59409102,-69.59409101999995,44.501297210000075
REM00912,VIGUE PROPERTY,,ROUTE 137,WINSLOW,KENNEBEC,UNCONTROLLED SITES,,FALSE,TRANSFERRED TO OTHER DIVISION,OTHER,4/6/2009,44.5375412,-69.62810213,-69.62810212999995,44.53754120000008
REM00922,PETERSONS FARM STORE,,COLBY ROAD (COLBY),WOODLAND,AROOSTOOK,UNCONTROLLED SITES,1,FALSE,REMEDY IN PLACE: CLOSED,UNDERTAKING POST-CLOSURE OBLIGATIONS,5/20/2008,46.89477329,-68.13530872,-68.13530871999995,46.894773290000046
REM00925,BARREN AREA,DIS#230,NO LOCATION,WYMAN TWP,FRANKLIN,UNCONTROLLED SITES,,FALSE,REMEDY IN PLACE: CLOSED,UNDERTAKING POST-CLOSURE OBLIGATIONS,4/6/2009,45.111707,-70.371676,-70.37167599999998,45.11170700000008
REM00949,201 MAIN STREET,QV REALTY TRUST,201 MAIN STREET,BANGOR,PENOBSCOT,VRAP,1,TRUE,REMEDY IN PLACE: CLOSED,UNDERTAKING POST-CLOSURE OBLIGATIONS,2/13/1996,44.79762434,-68.77354546,-68.77354545999998,44.79762434000003
REM00950,317 MAIN STREET,,317-321 MAIN STREET,BANGOR,PENOBSCOT,VRAP,,TRUE,REMEDIATION STAGE,NEED (AWAITING RESOURCES),6/23/2015,44.79525673,-68.77472552,-68.77472551999995,44.79525673000006
REM00951,"BANGOR PIPE & SUPPLY, INC.",,54-69 FARM ROAD,BANGOR,PENOBSCOT,VRAP,3.8,TRUE,REMEDY IN PLACE: CLOSED,UNDERTAKING POST-CLOSURE OBLIGATIONS,7/11/1999,44.78570864,-68.7824886,-68.78248859999997,44.78570864000005
REM00954,FORMER DARLINGS' NISSAN,,366 GRIFFIN ROAD,BANGOR,PENOBSCOT,VRAP,2.07,TRUE,REMEDY IN PLACE: CLOSED,UNDERTAKING POST-CLOSURE OBLIGATIONS,1/20/1997,44.81808153,-68.81518881,-68.81518880999994,44.81808153000003
REM00955,GRANTS DAIRY,,566 UNION STREET,BANGOR,PENOBSCOT,VRAP,1.3,TRUE,REMEDY IN PLACE: CLOSED,UNDERTAKING POST-CLOSURE OBLIGATIONS,9/24/1998,44.80670307,-68.79144333,-68.79144332999994,44.806703070000026
REM00958,KOBRITZ BUILDING,,77 RAILOROAD STREET,BANGOR,PENOBSCOT,VRAP,,TRUE,REMEDY IN PLACE: CLOSED,UNDERTAKING POST-CLOSURE OBLIGATIONS,2/2/2003,44.79459114,-68.77260732,-68.77260731999996,44.79459114000008
REM00960,MAINE CENTRAL RAILROAD YARD,,FRONT STREET,BANGOR,PENOBSCOT,VRAP,33,FALSE,REMEDY IN PLACE: CLOSED,UNDERTAKING POST-CLOSURE OBLIGATIONS,10/8/2002,44.79314128,-68.77415171,-68.77415170999996,44.79314128000004
REM00961,NATIONAL CONFECTIONARY,,86-160 FRONT STREET,BANGOR,PENOBSCOT,VRAP,3.78,TRUE,REMEDY IN PLACE: CLOSED,UNDERTAKING POST-CLOSURE OBLIGATIONS,1/30/2002,44.79564671,-68.77042883,-68.77042882999996,44.79564671000003
REM00962,NYNEX FACILITY,,645 ODLIN ROAD,BANGOR,PENOBSCOT,VRAP,5,TRUE,REMEDY IN PLACE: CLOSED,UNDERTAKING POST-CLOSURE OBLIGATIONS,2/8/2000,44.78168103,-68.82123783,-68.82123782999997,44.78168103000007
REM00963,Q.V. REALTY TRUST,BANGOR RADIATOR,240-244 MAIN STREET,BANGOR,PENOBSCOT,VRAP,1.71,FALSE,INVESTIGATION STAGE,NEED (AWAITING RESOURCES),6/8/2006,44.79692397,-68.77300072,-68.77300071999997,44.79692397000008
REM00964,ROADWAY TRAVELODGE,,482 ODLIN ROAD,BANGOR,PENOBSCOT,VRAP,3.5,TRUE,REMEDY IN PLACE: CLOSED,UNDERTAKING POST-CLOSURE OBLIGATIONS,6/5/2002,44.78365926,-68.81457627,-68.81457626999998,44.783659260000036
REM00966,WESTGATE MALL,"UNION STREET LAUNDROMAT & DRY CLEANING (RCRA NAME), NORGE VILLAGE LAUNDRY AND DRY CLEANING",915 UNION STREET,BANGOR,PENOBSCOT,VRAP,11.5,TRUE,REMEDY IN PLACE: CLOSED,UNDERTAKING POST-CLOSURE OBLIGATIONS,5/1/2016,44.814557,-68.801829,-68.80182899999994,44.814557000000036
REM00975,PENOBSCOT POULTRY,,CROSS & FRONT STREETS,BELFAST,WALDO,VRAP,2.73,FALSE,REMEDY IN PLACE: CLOSED,UNDERTAKING POST-CLOSURE OBLIGATIONS,4/22/2020,44.42689294,-69.00273663,-69.00273662999996,44.42689294000007
REM00976,TOURMALINE PROPERTY,"MBNA, HUTCHINS CENTER UMO",80 BELMONT AVENUE (ROUTE 3),BELFAST,WALDO,VRAP,5,TRUE,REMEDY IN PLACE: CLOSED,UNDERTAKING POST-CLOSURE OBLIGATIONS,11/11/1999,44.41921286,-69.03551115,-69.03551114999993,44.41921286000007
REM00984,HARBORSIDE RESTAURANT,,WILSON STREET & SOUTH MAIN STREET,BREWER,PENOBSCOT,VRAP,2,TRUE,REMEDY IN PLACE: CLOSED,UNDERTAKING POST-CLOSURE OBLIGATIONS,9/17/2001,44.79474044,-68.76691473,-68.76691472999994,44.794740440000055
REM00995,BUCKSPORT APARTMENTS,,MIDDLE STREET EXTENSION,BUCKSPORT,HANCOCK,VRAP,12.17,TRUE,REMEDY IN PLACE: CLOSED,UNDERTAKING POST-CLOSURE OBLIGATIONS,8/2/2001,44.57664347,-68.79724917,-68.79724916999999,44.57664347000008
REM00996,BUCKSPORT NORTH,SPRAGUE TERMINAL,ROUTE 15,BUCKSPORT,HANCOCK,VRAP,38.3,FALSE,REMEDIATION STAGE,NEED (AWAITING RESOURCES),3/27/2007,44.59092496,-68.81226857,-68.81226856999996,44.59092496000005
REM01003,"CHADWICK-BAROSS, INC.",,314 MAIN STREET,CARIBOU,AROOSTOOK,VRAP,3,FALSE,REMEDY IN PLACE: CLOSED,UNDERTAKING POST-CLOSURE OBLIGATIONS,10/12/2000,46.83219887,-68.010396,-68.01039599999996,46.83219887000007
REM01004,L.B. CARTER BULK PLANT,,RIVER ROAD,CARIBOU,AROOSTOOK,VRAP,,FALSE,REMEDY IN PLACE: CLOSED,UNDERTAKING POST-CLOSURE OBLIGATIONS,12/8/2015,46.85473835,-68.00023832,-68.00023831999994,46.85473835000005
REM01006,PAUL BATES' SUBARU,,109 BENNETT ROAD,CARIBOU,AROOSTOOK,VRAP,0.5,FALSE,REMEDY IN PLACE: CLOSED,UNDERTAKING POST-CLOSURE OBLIGATIONS,9/5/2002,46.868478,-68.003807,-68.00380699999994,46.86847800000004
REM01007,DUNTON FARM,,COOK ROAD,CARMEL,PENOBSCOT,VRAP,19,FALSE,REMEDY IN PLACE: CLOSED,UNDERTAKING POST-CLOSURE OBLIGATIONS,6/12/2001,44.77905069,-69.06195766,-69.06195765999996,44.779050690000076
REM01011,ROGERS BROTHERS FARMS,,MUTTON LANE ROAD,CLINTON,KENNEBEC,VRAP,23.5,FALSE,REMEDY IN PLACE: CLOSED,UNDERTAKING POST-CLOSURE OBLIGATIONS,6/12/2001,44.690496,-69.488154,-69.48815399999995,44.69049600000005
REM01017,BODFISH-ELLIOTSVILLE PLANTATION,,ELLIOTSVILLE ROAD,ELLIOTTSVILLE TWP,PISCATAQUIS,VRAP,,TRUE,REMEDY IN PLACE: CLOSED,UNDERTAKING POST-CLOSURE OBLIGATIONS,3/2/1998,45.375659,-69.429901,-69.42990099999997,45.37565900000004
REM01022,FAIRFIELD PUFFIN STOP,,95 MAIN STREET,FAIRFIELD,SOMERSET,VRAP,0.53,TRUE,REMEDY IN PLACE: CLOSED,UNDERTAKING POST-CLOSURE OBLIGATIONS,3/1/2001,44.583853,-69.599307,-69.59930699999995,44.58385300000003
REM01025,C & R REALTY TRUST,,ROUTES 2 & 4 (WILTON ROAD),FARMINGTON,FRANKLIN,VRAP,5.88,TRUE,REMEDY IN PLACE: CLOSED,UNDERTAKING POST-CLOSURE OBLIGATIONS,3/15/2000,44.63898697,-70.15357097,-70.15357096999998,44.638986970000076
REM01030,NUTRITE CORP,,52 MCSHEA SIDING,FORT FAIRFIELD,AROOSTOOK,VRAP,0.56,FALSE,REMEDY IN PLACE: CLOSED,UNDERTAKING POST-CLOSURE OBLIGATIONS,1/31/1999,46.76073962,-67.85322154,-67.85322153999994,46.76073962000004
REM01031,SOUCY'S ECONOMAT,,67 EAST MAIN STREET,FORT KENT,AROOSTOOK,VRAP,6,TRUE,REMEDY IN PLACE: CLOSED,UNDERTAKING POST-CLOSURE OBLIGATIONS,7/6/1999,47.25739615,-68.59081543,-68.59081542999996,47.257396150000034
REM01046,41 BANGOR STREET,,41 BANGOR STREET,HOULTON,AROOSTOOK,VRAP,0.88,FALSE,REMEDY IN PLACE: CLOSED,UNDERTAKING POST-CLOSURE OBLIGATIONS,3/21/2016,46.1251239,-67.84186262,-67.84186261999997,46.12512390000006
REM01048,NUTRITE,,ROUTE 2A,HOULTON,AROOSTOOK,VRAP,31,FALSE,REMEDY IN PLACE: CLOSED,UNDERTAKING POST-CLOSURE OBLIGATIONS,2/2/1999,46.12338,-67.826836,-67.82683599999996,46.123380000000054
REM01054,JACKMAN STATION RAILYARD,,MAIN STREET (ROUTE 201),JACKMAN,SOMERSET,VRAP,3.9,TRUE,REMEDY IN PLACE: CLOSED,UNDERTAKING POST-CLOSURE OBLIGATIONS,5/2/2001,45.623671,-70.251599,-70.25159899999994,45.62367100000006
REM01072,RITE AID LINCOLN,DL & L CORP,2 WEST BROADWAY,LINCOLN,PENOBSCOT,VRAP,7,TRUE,REMEDY IN PLACE: CLOSED,UNDERTAKING POST-CLOSURE OBLIGATIONS,10/8/1997,45.36206013,-68.50486596,-68.50486595999996,45.36206013000003
REM01077,RIER MOTORS,,DUBLIN STREET & ROQUES BLUFF ROAD,MACHIAS,WASHINGTON,VRAP,2.5,TRUE,REMEDY IN PLACE: CLOSED,UNDERTAKING POST-CLOSURE OBLIGATIONS,4/2/2002,44.701288,-67.468433,-67.46843299999995,44.701288000000034
REM01080,CHRISTY'S #354,,14 MAIN STREET,MILFORD,PENOBSCOT,VRAP,0.4,TRUE,REMEDY IN PLACE: CLOSED,UNDERTAKING POST-CLOSURE OBLIGATIONS,1/31/2007,44.94014336,-68.64186235,-68.64186234999994,44.940143360000036
REM01086,BRADSTREET PROPERTY,,RIDGE ROAD,NEWPORT,PENOBSCOT,VRAP,77,FALSE,REMEDY IN PLACE: CLOSED,UNDERTAKING POST-CLOSURE OBLIGATIONS,6/12/2001,44.82061918,-69.25716013,-69.25716012999999,44.82061918000005
REM01087,NEWPORT RENTAL,,139 MAIN STREET,NEWPORT,PENOBSCOT,VRAP,0.3,TRUE,REMEDY IN PLACE: CLOSED,UNDERTAKING POST-CLOSURE OBLIGATIONS,5/27/1997,44.83497,-69.275614,-69.27561399999996,44.834970000000055
REM01144,FORMER SEARS,,320 MAIN STREET,PRESQUE ISLE,AROOSTOOK,VRAP,2.3,TRUE,REMEDY IN PLACE: CLOSED,UNDERTAKING POST-CLOSURE OBLIGATIONS,4/10/1997,46.67943085,-68.01446752,-68.01446751999998,46.679430850000074
REM01145,IFL NUTRITE,,825 NORTH MAIN STREET,PRESQUE ISLE,AROOSTOOK,VRAP,4.1,FALSE,REMEDY IN PLACE: CLOSED,UNDERTAKING POST-CLOSURE OBLIGATIONS,10/29/1998,46.7011521,-68.0118296,-68.01182959999994,46.70115210000006
REM01148,THOMAS EQUIPMENT LTD.,B. DONALD INMAN,794 NORTH MAIN STREET,PRESQUE ISLE,AROOSTOOK,VRAP,1.4,FALSE,REMEDY IN PLACE: CLOSED,UNDERTAKING POST-CLOSURE OBLIGATIONS,3/21/2016,46.69882371,-68.01021089,-68.01021088999994,46.698823710000056
REM01149,NORTHEASTLAND HOTEL,,436 MAIN STREET,PRESQUE ISLE,AROOSTOOK,VRAP,,FALSE,REMEDY IN PLACE: CLOSED,UNDERTAKING POST-CLOSURE OBLIGATIONS,5/13/2003,46.68077572,-68.01469216,-68.01469215999998,46.68077572000004
REM01171,D.W. SMALL/IRVING OIL,,109 WATERVILLE ROAD (ROUTE 201),SKOWHEGAN,SOMERSET,VRAP,3.01,TRUE,REMEDY IN PLACE: CLOSED,UNDERTAKING POST-CLOSURE OBLIGATIONS,3/18/1999,44.761941,-69.706567,-69.70656699999995,44.761941000000036
REM01172,DEXTER SHOE,NEW BALANCE,ISLAND AVENUE,SKOWHEGAN,SOMERSET,VRAP,0.62,TRUE,REMEDY IN PLACE: CLOSED,UNDERTAKING POST-CLOSURE OBLIGATIONS,12/31/1949,44.76325916,-69.71677002,-69.71677001999996,44.763259160000075
REM01191,ST. AURELIE STATION,,MAINE/QUEBEC BORDER,BIG SIX TWP,SOMERSET,VRAP,,FALSE,REMEDY IN PLACE: CLOSED,UNDERTAKING POST-CLOSURE OBLIGATIONS,2/15/2000,46.208077,-70.273093,-70.27309299999996,46.20807700000006
REM01192,STE. AURELIE LANDFILL,,DUMP ROAD,T07 R19 WELS,SOMERSET,VRAP,,FALSE,REMEDY IN PLACE: CLOSED,UNDERTAKING POST-CLOSURE OBLIGATIONS,3/21/2000,46.219089,-70.246725,-70.24672499999997,46.219089000000054
REM01196,VANCEBORO RAIL YARD,,RAILROAD STREET,VANCEBORO,WASHINGTON,VRAP,29,TRUE,REMEDY IN PLACE: CLOSED,UNDERTAKING POST-CLOSURE OBLIGATIONS,10/26/2005,45.56216,-67.431558,-67.43155799999994,45.56216000000006
REM01203,FRONT STREET MPL,,31 FRONT STREET,WATERVILLE,KENNEBEC,VRAP,0.96,TRUE,REMEDY IN PLACE: CLOSED,UNDERTAKING POST-CLOSURE OBLIGATIONS,6/23/1996,44.54963144,-69.62786885,-69.62786884999997,44.54963144000004
REM01204,LARSONS SERVICE,,366 MAIN STREET,WATERVILLE,KENNEBEC,VRAP,0.8,FALSE,REMEDY IN PLACE: CLOSED,UNDERTAKING POST-CLOSURE OBLIGATIONS,7/6/2003,44.56985309,-69.6399831,-69.63998309999994,44.56985309000004
REM01208,WATERVILLE SURPLUS PROPERTY,,OFF ROUTE 201,WATERVILLE,KENNEBEC,VRAP,12.5,FALSE,REMEDIATION STAGE,NEED (AWAITING RESOURCES),9/8/1999,44.559647,-69.625325,-69.62532499999998,44.55964700000004
REM01235,ARC BANGOR,FORMER HAROLD SLAGER MEMORIAL ARMY RESERVE CENTER,931 UNION STREET,BANGOR,PENOBSCOT,FEDERAL FACILITIES,5,FALSE,REMEDY IN PLACE: CLOSED,UNDERTAKING POST-CLOSURE OBLIGATIONS,8/31/2005,44.8146765,-68.80438713,-68.80438712999995,44.814676500000076
REM00429,BANGOR ARMY NATIONAL GUARD,,287 GODFREY ROAD,BANGOR,PENOBSCOT,FEDERAL FACILITIES,,FALSE,COMPLAINT INVESTIGATED,REVIEWING PRELIMINARY SITE INFORMATION,4/8/2009,44.81390896,-68.8044447,-68.80444469999998,44.81390896000005
REM00429,BANGOR ARMY NATIONAL GUARD,,287 GODFREY ROAD,BANGOR,PENOBSCOT,UNCONTROLLED SITES,,FALSE,COMPLAINT INVESTIGATED,REVIEWING PRELIMINARY SITE INFORMATION,4/8/2009,44.81390896,-68.8044447,-68.80444469999998,44.81390896000005
REM01501,DFSP PIPELINE - BANGOR TO LIMESTONE,,,BANGOR,PENOBSCOT,FEDERAL FACILITIES,,FALSE,COMPLAINT INVESTIGATED,REVIEWING PRELIMINARY SITE INFORMATION,4/8/2009,44.81828923,-68.83133645,-68.83133644999998,44.81828923000006
REM01501,DFSP PIPELINE - BANGOR TO LIMESTONE,,,BANGOR,PENOBSCOT,UNCONTROLLED SITES,,FALSE,COMPLAINT INVESTIGATED,REVIEWING PRELIMINARY SITE INFORMATION,4/8/2009,44.81828923,-68.83133645,-68.83133644999998,44.81828923000006
REM01240,DOW AFB FAMILY HOUSING #2,,,BANGOR,PENOBSCOT,FEDERAL FACILITIES,,FALSE,COMPLAINT INVESTIGATED,REVIEWING PRELIMINARY SITE INFORMATION,12/31/1949,44.83934903,-68.82060904,-68.82060903999997,44.83934903000005
REM01242,DOW PRECISION BOMBING RANGE,,,T32 MD,HANCOCK,FEDERAL FACILITIES,,FALSE,COMPLAINT INVESTIGATED,REVIEWING PRELIMINARY SITE INFORMATION,12/31/1949,44.97545325,-68.45948371,-68.45948370999997,44.975453250000044
REM01249,LITTLE RIVER BATTERY,,BATTERY ROAD,BELFAST,WALDO,FEDERAL FACILITIES,,FALSE,COMPLAINT INVESTIGATED,REVIEWING PRELIMINARY SITE INFORMATION,12/31/1949,44.40406375,-68.9848433,-68.98484329999997,44.404063750000034
REM01250,MINISTERS POINT BATTERY,FUDS D01ME0519,EAST SIDE BATTERY,BELFAST,WALDO,FEDERAL FACILITIES,,FALSE,COMPLAINT INVESTIGATED,REVIEWING PRELIMINARY SITE INFORMATION,12/31/1949,44.42699279,-68.97207624,-68.97207623999998,44.42699279000004
REM01255,BRIDGEWATER GAP FILLER  ANNEX,,,BRIDGEWATER,AROOSTOOK,FEDERAL FACILITIES,,FALSE,COMPLAINT INVESTIGATED,REVIEWING PRELIMINARY SITE INFORMATION,12/31/1949,46.42103064,-68.02442673,-68.02442672999996,46.421030640000026
REM01284,NSGA COREA OPERATIONS,,OFF ROUTE 195,GOULDSBORO,HANCOCK,FEDERAL FACILITIES,469,FALSE,REMEDIATION STAGE,NEED (AWAITING RESOURCES),3/12/2016,44.40120646,-67.99137374,-67.99137373999997,44.401206460000026
REM01291,DEBLOIS PRECISION BOMBING RANGE,,,T18 MD BPP,WASHINGTON,FEDERAL FACILITIES,,FALSE,COMPLAINT INVESTIGATED,REVIEWING PRELIMINARY SITE INFORMATION,12/31/1949,44.76231463,-67.82288394,-67.82288393999994,44.76231463000005
REM01293,LORING SURVIVAL TRAINING ANNEX,,,T14 R09 WELS,AROOSTOOK,FEDERAL FACILITIES,,FALSE,COMPLAINT INVESTIGATED,REVIEWING PRELIMINARY SITE INFORMATION,2/20/1996,46.93147351,-68.86514941,-68.86514940999996,46.931473510000046
REM01294,NAVAL FUEL DEPOT,,ROUTE 184,LAMOINE,HANCOCK,FEDERAL FACILITIES,,FALSE,COMPLAINT INVESTIGATED,REVIEWING PRELIMINARY SITE INFORMATION,12/12/1994,44.450951,-68.299308,-68.29930799999994,44.45095100000003
REM01295,FORT SULLIVAN,,MCKINNLEY STREET,EASTPORT,WASHINGTON,FEDERAL FACILITIES,12.18,FALSE,COMPLAINT INVESTIGATED,REVIEWING PRELIMINARY SITE INFORMATION,12/31/1949,44.90751,-66.988544,-66.98854399999993,44.90751000000006
REM01296,TREATS ISLAND BATTERY,,TREATS AND DUDLEY ISLANDS,EASTPORT,WASHINGTON,FEDERAL FACILITIES,73.93,FALSE,COMPLAINT INVESTIGATED,REVIEWING PRELIMINARY SITE INFORMATION,12/31/1949,44.8776259,-66.98721065,-66.98721064999995,44.877625900000055
REM01297,TODDS HEAD BATTERY,,CAPON STREET,EASTPORT,WASHINGTON,FEDERAL FACILITIES,2,FALSE,COMPLAINT INVESTIGATED,REVIEWING PRELIMINARY SITE INFORMATION,12/31/1949,44.911619,-66.983918,-66.98391799999996,44.91161900000003
REM01299,CAMP OLSEN,,DODGE ROAD,EDMUNDS TWP,WASHINGTON,FEDERAL FACILITIES,221,FALSE,INVESTIGATION STAGE,ONGOING,8/20/2024,44.876757,-67.258939,-67.25893899999994,44.876757000000055
REM01317,DIRECTION FINDER STATION,,,JONESPORT,WASHINGTON,FEDERAL FACILITIES,,FALSE,COMPLAINT INVESTIGATED,REVIEWING PRELIMINARY SITE INFORMATION,12/31/1949,44.55501263,-67.57969462,-67.57969461999994,44.55501263000008
REM01338,FORT KNOX,,,PROSPECT,WALDO,FEDERAL FACILITIES,,FALSE,COMPLAINT INVESTIGATED,REVIEWING PRELIMINARY SITE INFORMATION,12/31/1949,44.5662689,-68.80245685,-68.80245684999994,44.56626890000007
REM01339,FORT MANNING,,,MACHIAS,WASHINGTON,FEDERAL FACILITIES,,FALSE,COMPLAINT INVESTIGATED,REVIEWING PRELIMINARY SITE INFORMATION,12/31/1949,44.67676398,-67.3799508,-67.37995079999996,44.67676398000003
REM01342,FORT O BRIEN,,,MACHIASPORT,WASHINGTON,FEDERAL FACILITIES,2,FALSE,REMEDY IN PLACE: CLOSED,UNDERTAKING POST-CLOSURE OBLIGATIONS,4/8/2001,44.689449,-67.395688,-67.39568799999995,44.689449000000025
REM01394,PRESQUE ISLE AFB,,,PRESQUE ISLE,AROOSTOOK,FEDERAL FACILITIES,,FALSE,COMPLAINT INVESTIGATED,REVIEWING PRELIMINARY SITE INFORMATION,12/31/1949,46.689195,-68.039343,-68.03934299999997,46.68919500000004
REM01396,PRESQUE ISLE MILITARY FAMILY HOUSING,,,PRESQUE ISLE,AROOSTOOK,FEDERAL FACILITIES,,FALSE,COMPLAINT INVESTIGATED,REVIEWING PRELIMINARY SITE INFORMATION,12/31/1949,46.691152,-68.020915,-68.02091499999995,46.691152000000045
REM01398,PRINCETON REGIONAL AIRPORT,,,PRINCETON,WASHINGTON,FEDERAL FACILITIES,,FALSE,COMPLAINT INVESTIGATED,REVIEWING PRELIMINARY SITE INFORMATION,12/31/1949,45.2010416,-67.56461552,-67.56461551999996,45.20104160000005
REM01399,NAVASTROGU,ASTRONAUTICS GROUP DETECTION,,GOULDSBORO,HANCOCK,FEDERAL FACILITIES,,FALSE,COMPLAINT INVESTIGATED,REVIEWING PRELIMINARY SITE INFORMATION,12/31/1949,44.40393558,-68.01295978,-68.01295977999996,44.40393558000005
REM01400,NAVAL COMMAND TRAINING CAMP,NCTC QUODDY VILLAGE,OFF ROUTE 190,EASTPORT,WASHINGTON,FEDERAL FACILITIES,,FALSE,COMPLAINT INVESTIGATED,REVIEWING PRELIMINARY SITE INFORMATION,12/31/1949,44.92957571,-67.02894055,-67.02894054999996,44.92957571000005
REM01401,SERE LANDFILL,SERE SCHOOL,,REDINGTON TWP,FRANKLIN,FEDERAL FACILITIES,,FALSE,COMPLAINT INVESTIGATED,REVIEWING PRELIMINARY SITE INFORMATION,12/31/1949,45.004684,-70.424767,-70.42476699999997,45.004684000000054
REM01419,TOPSFIELD GAP FILLER ANNEX Z-65A,,,TOPSFIELD,WASHINGTON,FEDERAL FACILITIES,,FALSE,COMPLAINT INVESTIGATED,REVIEWING PRELIMINARY SITE INFORMATION,12/31/1949,45.388582,-67.796896,-67.79689599999995,45.38858200000004
REM01422,BAR HARBOR NAVAL AIR FACILITY,"HANCOCK COUNTY BAR HARBOR AIRPORT, FUDS D01ME0516","CARUSO DRIVE, TRENTON",TRENTON,HANCOCK,FEDERAL FACILITIES,,FALSE,COMPLAINT INVESTIGATED,REVIEWING PRELIMINARY SITE INFORMATION,12/31/1949,44.44916995,-68.36118188,-68.36118187999995,44.449169950000055
REM01437,COLUMBIA FALLS AFS,OVER THE HORIZON BACKSCATTER RADAR,,T18 MD BPP,WASHINGTON,FEDERAL FACILITIES,,FALSE,COMPLAINT INVESTIGATED,REVIEWING PRELIMINARY SITE INFORMATION,12/31/1949,44.767961,-67.812964,-67.81296399999997,44.76796100000007
REM01438,CONRADS SALES & SERVICE,,ROUTE 6/15,ABBOT,PISCATAQUIS,VRAP,15.86,FALSE,REMEDY IN PLACE: CLOSED,UNDERTAKING POST-CLOSURE OBLIGATIONS,6/21/2004,45.180848,-69.447821,-69.44782099999998,45.180848000000026
REM01441,SAUCONY PLANT,,99 FARM ROAD,BANGOR,PENOBSCOT,VRAP,5.7,TRUE,REMEDY IN PLACE: CLOSED,UNDERTAKING POST-CLOSURE OBLIGATIONS,10/20/2003,44.78601193,-68.78415941,-68.78415940999997,44.78601193000003
REM01454,GREAT NORTHERN ASSETS,KATAHDIN AVENUE,KATAHDIN AVENUE,EAST MILLINOCKET,PENOBSCOT,VRAP,480,FALSE,REMEDY IN PLACE: CLOSED,UNDERTAKING POST-CLOSURE OBLIGATIONS,4/23/2003,45.64547723,-68.70757353,-68.70757352999993,45.64547723000004
REM01449,IRVING BULK PLANT,I-22-1998,16 LEONARD STREET,HOULTON,AROOSTOOK,VRAP,1.56,TRUE,REMEDY IN PLACE: CLOSED,UNDERTAKING POST-CLOSURE OBLIGATIONS,10/28/2013,46.12226053,-67.84288096,-67.84288095999995,46.12226053000006
REM01453,MACHIAS BULK PLANT,,OLD COUNTY ROAD & ROUTE 1,MACHIAS,WASHINGTON,VRAP,4.22,TRUE,REMEDY IN PLACE: CLOSED,UNDERTAKING POST-CLOSURE OBLIGATIONS,6/8/2014,44.72338123,-67.44265996,-67.44265995999996,44.72338123000003
REM01463,HEAD OF FALLS PROPERTIES,,FRONT STREET,WATERVILLE,KENNEBEC,VRAP,12.5,FALSE,REMEDIATION STAGE,NEED (AWAITING RESOURCES),8/8/2004,44.55140631,-69.62747475,-69.62747474999998,44.55140631000006
REM01469,DIAMOND MILL,,MILL ROAD,PERU,OXFORD,VRAP,15,FALSE,REMEDY IN PLACE: CLOSED,UNDERTAKING POST-CLOSURE OBLIGATIONS,9/27/2007,44.52647253,-70.45748817,-70.45748816999998,44.526472530000035
REM01480,GULF REFINING CO.,"THOMAS NEIGHBORHOOD, MURPHY MYSTERY SPILL",14 FRANKLIN ROAD,HANCOCK,HANCOCK,UNCONTROLLED SITES,1.4,TRUE,REMEDY IN PLACE: CLOSED,UNDERTAKING POST-CLOSURE OBLIGATIONS,10/16/2018,44.5389536,-68.31927054,-68.31927053999993,44.53895360000007
REM00066,CANAAN MUNICIPAL LANDFILL,,BROWNS CORNER ROAD,CANAAN,SOMERSET,LANDFILL CLOSURE,0.5,TRUE,REMEDY IN PLACE: CLOSED,UNDERTAKING POST-CLOSURE OBLIGATIONS,7/30/1981,44.83205301,-69.60103945,-69.60103944999997,44.83205301000004
REM01502,SKOWHEGAN MUNICIPAL LANDFILL,,STEWARD HILL ROAD,SKOWHEGAN,SOMERSET,LANDFILL CLOSURE,8,TRUE,REMEDY IN PLACE: CLOSED,UNDERTAKING POST-CLOSURE OBLIGATIONS,7/30/1997,44.79702648,-69.71763413,-69.71763412999996,44.797026480000056
REM01509,LINCOLN PULP AND PAPER CO.,,50 KATAHDIN AVENUE,LINCOLN,PENOBSCOT,VRAP,1,FALSE,REMEDY IN PLACE: CLOSED,UNDERTAKING POST-CLOSURE OBLIGATIONS,7/29/2004,45.36926085,-68.51126852,-68.51126851999999,45.369260850000046
REM01510,ROWANTREES POTTERY,,ROUTE 177 (UNION STREET) OR 84 UNION STREET,BLUE HILL,HANCOCK,VRAP,4.9,FALSE,REMEDY IN PLACE: CLOSED,NO (OR DE-MINIMIS) CONTAMINATION LEFT ON SITE,6/12/2017,44.41305105,-68.59251979,-68.59251978999998,44.413051050000036
REM01511,GRANTS TRAILER SALES,,440 & 536 STILLWATER AVE,BANGOR,PENOBSCOT,VRAP,28.4,FALSE,REMEDY IN PLACE: CLOSED,UNDERTAKING POST-CLOSURE OBLIGATIONS,11/28/2005,44.82763375,-68.75833976,-68.75833975999996,44.827633750000075
REM01514,INDUSTRIAL SERVICES,W.H SHURTLEFF,162 PARKWAY SOUTH,BREWER,PENOBSCOT,VRAP,16,TRUE,COMPLAINT INVESTIGATED,UNSUBSTANTIATED,7/8/2020,44.77986255,-68.7629359,-68.76293589999995,44.779862550000075
REM00741,LILY-TULIP,WAREHOUSE COMPLEX,245 NORTH MAIN STREET,OLD TOWN,PENOBSCOT,UNCONTROLLED SITES,3,TRUE,REMEDIATION STAGE,NEED (AWAITING RESOURCES),10/3/2019,44.938436,-68.647347,-68.64734699999997,44.93843600000008
REM00560,OLD HOWLAND TANNERY,,OLD COUNTY ROAD,HOWLAND,PENOBSCOT,BROWNFIELDS,25,TRUE,REMEDY IN PLACE: CLOSED,UNDERTAKING POST-CLOSURE OBLIGATIONS,4/22/2014,45.23678568,-68.65641204,-68.65641203999996,45.236785680000025
REM01517,SOUTH ARM CAMPGROUND,,SOUTH ARM ROAD,TOWNSHIP C,OXFORD,VRAP,45,FALSE,INVESTIGATION STAGE,NEED (AWAITING RESOURCES),1/30/2020,44.753053,-70.844632,-70.84463199999993,44.75305300000008
REM01496,OVER THE HORIZON BACKSCATTER EAST MOSCOW,,,MOSCOW,SOMERSET,FEDERAL FACILITIES,,FALSE,COMPLAINT INVESTIGATED,REVIEWING PRELIMINARY SITE INFORMATION,12/31/1949,45.1617636,-69.85255645,-69.85255644999995,45.16176360000003
REM01524,D.C. MORTON & SONS,,2775 MAIN STREET,RANGELEY,FRANKLIN,VRAP,1.8,FALSE,INVESTIGATION STAGE,NEED (AWAITING RESOURCES),1/12/2020,44.967219,-70.655174,-70.65517399999999,44.96721900000006
REM01495,CARIBOU COMMUNICATIONS SITE,NIKE L0 58 CONTROL,RTE 1,CARIBOU,AROOSTOOK,FEDERAL FACILITIES,,FALSE,REMEDY IN PLACE: CLOSED,UNDERTAKING POST-CLOSURE OBLIGATIONS,5/21/2008,46.887082,-67.971243,-67.97124299999996,46.88708200000008
REM01495,CARIBOU COMMUNICATIONS SITE,NIKE L0 58 CONTROL,RTE 1,CARIBOU,AROOSTOOK,UNCONTROLLED SITES,,FALSE,REMEDY IN PLACE: CLOSED,UNDERTAKING POST-CLOSURE OBLIGATIONS,5/21/2008,46.887082,-67.971243,-67.97124299999996,46.88708200000008
REM01519,NEW FRANKLIN LAUNDRY,BANGOR STEAM LAUNDRY,125 FERN STREET,BANGOR,PENOBSCOT,VRAP,1.15,TRUE,REMEDY IN PLACE: CLOSED,UNDERTAKING POST-CLOSURE OBLIGATIONS,1/24/2013,44.8110135,-68.75844932,-68.75844931999995,44.81101350000006
REM01529,WATERVILLE INDUSTRIES,,RIVER ROAD (ROUTE 104),WATERVILLE,KENNEBEC,UNCONTROLLED SITES,25,FALSE,REMEDY IN PLACE: CLOSED,UNDERTAKING POST-CLOSURE OBLIGATIONS,6/17/2020,44.50286995,-69.67958946,-69.67958945999999,44.50286995000005
REM01534,GILS WRECKER SERVICE,,11 DAVIS STREET,PRESQUE ISLE,AROOSTOOK,VRAP,2,FALSE,REMEDY IN PLACE: CLOSED,UNDERTAKING POST-CLOSURE OBLIGATIONS,11/28/2004,46.69090484,-68.01077854,-68.01077853999993,46.69090484000003
REM01542,WATSONS DRY CLEANERS,,59 FRANKLIN STREET,ELLSWORTH,HANCOCK,VRAP,0.57,TRUE,REMEDY IN PLACE: CLOSED,UNDERTAKING POST-CLOSURE OBLIGATIONS,3/27/2024,44.54090978,-68.42341257,-68.42341256999998,44.54090978000005
REM01546,MAIN STREET JUNKYARD,,686 MAIN STREET/RT 178,BRADLEY,PENOBSCOT,BROWNFIELDS,6.91,FALSE,REMEDY IN PLACE: CLOSED,UNDERTAKING POST-CLOSURE OBLIGATIONS,7/31/2005,44.88307637,-68.65523637,-68.65523636999995,44.883076370000026
REM01547,PRECISION METALS,,ROUTE 17,ROXBURY,OXFORD,BROWNFIELDS,1.5,FALSE,REMEDY IN PLACE: CLOSED,NO (OR DE-MINIMIS) CONTAMINATION LEFT ON SITE,11/30/2009,44.621839,-70.579786,-70.57978599999996,44.62183900000008
REM01548,EASTERN FINE PAPER,EASTERN MANUFACTURING FACILITY,517 SOUTH MAIN STREET,BREWER,PENOBSCOT,BROWNFIELDS,41,FALSE,REMEDY IN PLACE: CLOSED,UNDERTAKING POST-CLOSURE OBLIGATIONS,1/22/2013,44.77164995,-68.78382692,-68.78382691999997,44.77164995000004
REM01551,CADILLAC MOUNTAIN SPORTS,,32 HIGH STREET,ELLSWORTH,HANCOCK,VRAP,1.04,TRUE,REMEDY IN PLACE: CLOSED,UNDERTAKING POST-CLOSURE OBLIGATIONS,12/5/2005,44.54141375,-68.41785014,-68.41785013999998,44.54141375000006
REM01552,AYERS ISLAND,,ISLAND AVE,ORONO,PENOBSCOT,BROWNFIELDS,60,FALSE,INVESTIGATION STAGE,NEED (AWAITING RESOURCES),3/29/2018,44.87351466,-68.67184073,-68.67184072999999,44.87351466000007
REM01552,AYERS ISLAND,,ISLAND AVE,ORONO,PENOBSCOT,VRAP,60,FALSE,INVESTIGATION STAGE,NEED (AWAITING RESOURCES),3/29/2018,44.87351466,-68.67184073,-68.67184072999999,44.87351466000007
REM01554,PORTLAND BANGOR WASTE OIL,,MAPLETON ROAD,PRESQUE ISLE,AROOSTOOK,UNCONTROLLED SITES,1.8,FALSE,TRANSFERRED TO OTHER DIVISION,OIL,11/15/2010,46.67680323,-68.05175376,-68.05175375999994,46.676803230000075
REM01235,ARC BANGOR,FORMER HAROLD SLAGER MEMORIAL ARMY RESERVE CENTER,931 UNION STREET,BANGOR,PENOBSCOT,VRAP,5,FALSE,REMEDY IN PLACE: CLOSED,UNDERTAKING POST-CLOSURE OBLIGATIONS,8/31/2005,44.8146765,-68.80438713,-68.80438712999995,44.814676500000076
REM01569,LOG CABIN CRAFTS,,31 MAIN STREET,DIXFIELD,OXFORD,VRAP,0.33,FALSE,REMEDY IN PLACE: CLOSED,UNDERTAKING POST-CLOSURE OBLIGATIONS,10/29/2006,44.5310273,-70.45703634,-70.45703633999995,44.53102730000006
REM01573,FLO-JO CONTRACTING,,RT 27,ROME,KENNEBEC,VRAP,4.6,FALSE,REMEDY IN PLACE: CLOSED,UNDERTAKING POST-CLOSURE OBLIGATIONS,5/22/2005,44.598873,-69.930464,-69.93046399999997,44.598873000000026
REM01575,EAST MILLINOCKET BARK PILE,,ROUTE 11/ROUTE 157,EAST MILLINOCKET,PENOBSCOT,VRAP,22,TRUE,REMEDY IN PLACE: CLOSED,UNDERTAKING POST-CLOSURE OBLIGATIONS,6/7/2005,45.62509762,-68.58562311,-68.58562310999997,45.625097620000076
REM00447,STINSON CANNING CO,COMBINES WITH 45 FRONT STREET,101 FRONT STREET,BELFAST,WALDO,VRAP,4.3,TRUE,REMEDY IN PLACE: CLOSED,UNDERTAKING POST-CLOSURE OBLIGATIONS,11/28/2013,44.42969799,-69.00950104,-69.00950103999998,44.42969799000008
REM00447,STINSON CANNING CO,COMBINES WITH 45 FRONT STREET,101 FRONT STREET,BELFAST,WALDO,UNCONTROLLED SITES,4.3,TRUE,REMEDY IN PLACE: CLOSED,UNDERTAKING POST-CLOSURE OBLIGATIONS,11/28/2013,44.42969799,-69.00950104,-69.00950103999998,44.42969799000008
REM01583,WATERVILLE HOP,,1 KENNEDY MEMORIAL DRIVE,WATERVILLE,KENNEBEC,VRAP,1.83,TRUE,REMEDY IN PLACE: CLOSED,UNDERTAKING POST-CLOSURE OBLIGATIONS,12/14/2005,44.540601,-69.649978,-69.64997799999998,44.54060100000004
REM01585,BARK PILE E SIDE,,FERGUSON LAKE ROAD,MILLINOCKET,PENOBSCOT,VRAP,52.7,FALSE,REMEDY IN PLACE: CLOSED,UNDERTAKING POST-CLOSURE OBLIGATIONS,7/13/2005,45.6349628,-68.71550184,-68.71550183999994,45.63496280000004
REM01546,MAIN STREET JUNKYARD,,686 MAIN STREET/RT 178,BRADLEY,PENOBSCOT,VRAP,6.91,FALSE,REMEDY IN PLACE: CLOSED,UNDERTAKING POST-CLOSURE OBLIGATIONS,7/31/2005,44.88307637,-68.65523637,-68.65523636999995,44.883076370000026
REM01586,CITY DRY CLEANERS,,636 MAIN STREET,PRESQUE ISLE,AROOSTOOK,VRAP,0.23,FALSE,REMEDY IN PLACE: CLOSED,UNDERTAKING POST-CLOSURE OBLIGATIONS,8/1/2006,46.68561682,-68.01356853,-68.01356852999999,46.685616820000064
REM01589,DISCOVERY HOUSE,,13 BEECH STREET,CALAIS,WASHINGTON,VRAP,0.69,TRUE,REMEDY IN PLACE: CLOSED,UNDERTAKING POST-CLOSURE OBLIGATIONS,9/14/2005,45.17847301,-67.28821682,-67.28821681999995,45.17847301000006
REM01594,RT. 108 JUNKYARD,,214 RT. 108,RUMFORD,OXFORD,BROWNFIELDS,0.92,FALSE,REMEDY IN PLACE: CLOSED,UNDERTAKING POST-CLOSURE OBLIGATIONS,7/8/2008,44.53283318,-70.51550435,-70.51550434999996,44.53283318000007
REM01594,RT. 108 JUNKYARD,,214 RT. 108,RUMFORD,OXFORD,UNCONTROLLED SITES,0.92,FALSE,REMEDY IN PLACE: CLOSED,UNDERTAKING POST-CLOSURE OBLIGATIONS,7/8/2008,44.53283318,-70.51550435,-70.51550434999996,44.53283318000007
REM01596,IRVING MAINWAY VAN BUREN,,171 MAIN STREET,VAN BUREN,AROOSTOOK,VRAP,1.25,FALSE,REMEDIATION STAGE,ONGOING,11/3/2019,47.15694736,-67.93559258,-67.93559257999993,47.15694736000006
REM01597,IRVING MAINWAY BRIDGEWATER,,733 U.S. HIGHWAY 1,BRIDGEWATER,AROOSTOOK,VRAP,3,FALSE,REMEDY IN PLACE: CLOSED,UNDERTAKING POST-CLOSURE OBLIGATIONS,9/25/2005,46.451212,-67.851529,-67.85152899999997,46.451212000000055
REM01598,IRVING MAINWAY FORT FAIRFIELD,,214 MAIN STREET,FORT FAIRFIELD,AROOSTOOK,VRAP,0.92,FALSE,REMEDY IN PLACE: CLOSED,UNDERTAKING POST-CLOSURE OBLIGATIONS,11/11/2009,46.77024681,-67.82534816,-67.82534815999998,46.77024681000006
REM01599,IRVING MAINWAY MADAWASKA,,74 MAIN STREET,MADAWASKA,AROOSTOOK,VRAP,3.25,FALSE,REMEDIATION STAGE,NEED (AWAITING RESOURCES),1/14/2025,47.35520585,-68.34425582,-68.34425581999994,47.35520585000006
REM01604,OSRAM SYLVANIA,,200 SYLVAN ROAD,BANGOR,PENOBSCOT,VRAP,39.3,TRUE,REMEDY IN PLACE: CLOSED,UNDERTAKING POST-CLOSURE OBLIGATIONS,11/3/2020,44.825399,-68.749218,-68.74921799999998,44.82539900000006
REM01606,ELSCOTT MANUFACTURING,,US ROUTE 1,GOULDSBORO,HANCOCK,VRAP,1.7,TRUE,REMEDY IN PLACE: CLOSED,UNDERTAKING POST-CLOSURE OBLIGATIONS,8/31/2006,44.486053,-68.119553,-68.11955299999994,44.48605300000003
REM01612,BEAVER COVE MARINA,,795 LILY BAY ROAD,BEAVER COVE,PISCATAQUIS,VRAP,9.5,FALSE,REMEDY IN PLACE: CLOSED,UNDERTAKING POST-CLOSURE OBLIGATIONS,3/19/2006,45.533811,-69.547198,-69.54719799999998,45.53381100000007
REM01615,NORTHERN PLAZA,,740 CENTRAL STREET,MILLINOCKET,PENOBSCOT,VRAP,7.4,TRUE,REMEDY IN PLACE: CLOSED,UNDERTAKING POST-CLOSURE OBLIGATIONS,8/1/2011,45.65614413,-68.68999391,-68.68999390999994,45.65614413000003
REM01618,MORRISON CHEVROLET,,65 WATER STREET,ELLSWORTH,HANCOCK,VRAP,1.85,FALSE,REMEDY IN PLACE: CLOSED,UNDERTAKING POST-CLOSURE OBLIGATIONS,10/29/2006,44.53986853,-68.42471773,-68.42471772999994,44.539868530000035
REM01619,HILLTOP STORE,,231 BELFAST ROAD,KNOX,WALDO,VRAP,0.6,FALSE,REMEDY IN PLACE: CLOSED,UNDERTAKING POST-CLOSURE OBLIGATIONS,3/16/2006,44.53252075,-69.27102765,-69.27102764999995,44.53252075000006
REM00464,ROLNICK PROPERTY,JR REDEMPTION REM03151 DUPLICATE,151 SOUTH MAIN STREET,BREWER,PENOBSCOT,BROWNFIELDS,4.24,FALSE,REMEDIATION STAGE,ONGOING,7/22/2023,44.79037179,-68.76936127,-68.76936126999993,44.79037179000005
REM01633,MAIN STREET TEXACO,MPG MAIN STREET,238 MAIN STREET,PRESQUE ISLE,AROOSTOOK,VRAP,0.9,FALSE,REMEDY IN PLACE: CLOSED,UNDERTAKING POST-CLOSURE OBLIGATIONS,2/3/2008,46.67491755,-68.01573692,-68.01573691999994,46.67491755000003
REM01634,PARSONS ST GAS CENTER,MPG PARSONS STREET,86 PARSONS ST,PRESQUE ISLE,AROOSTOOK,VRAP,1.18,FALSE,REMEDY IN PLACE: CLOSED,UNDERTAKING POST-CLOSURE OBLIGATIONS,3/23/2008,46.68981373,-68.01880201,-68.01880200999994,46.689813730000026
REM01635,NEW BALANCE,,10 DEPOT STREET,NORRIDGEWOCK,SOMERSET,VRAP,7.472,FALSE,REMEDY IN PLACE: CLOSED,UNDERTAKING POST-CLOSURE OBLIGATIONS,2/1/2007,44.71525089,-69.79565924,-69.79565923999996,44.71525089000005
REM01637,GLEW PROPERTY,,2489 US ROUTE 2,HERMON,PENOBSCOT,VRAP,6.2,FALSE,COMPLAINT INVESTIGATED,REVIEWING PRELIMINARY SITE INFORMATION,6/29/2006,44.80919383,-68.90875167,-68.90875166999996,44.80919383000003
REM01638,MAINE LUBRICATION SERVICES,"FENDERSON REALTY, LLC",674 COLDBROOK ROAD,HERMON,PENOBSCOT,VRAP,3.07,FALSE,REMEDY IN PLACE: CLOSED,UNDERTAKING POST-CLOSURE OBLIGATIONS,10/29/2006,44.78238864,-68.87067336,-68.87067335999996,44.78238864000008
REM01639,UNIVERSITY MALL,,6 STILLWATER AVENUE,ORONO,PENOBSCOT,VRAP,13.85,TRUE,REMEDY IN PLACE: CLOSED,UNDERTAKING POST-CLOSURE OBLIGATIONS,1/25/2007,44.90591116,-68.69108709,-68.69108708999994,44.90591116000007
REM01644,PRESCOTT RESIDENCE,,1445 BANGOR ROAD,ELLSWORTH,HANCOCK,VRAP,28,FALSE,REMEDY IN PLACE: CLOSED,UNDERTAKING POST-CLOSURE OBLIGATIONS,10/29/2006,44.62740459,-68.53625636,-68.53625635999998,44.627404590000026
REM01647,BANGOR RADIATOR,Q.V. REALTY TRUST,240-244 MAIN STREET,BANGOR,PENOBSCOT,VRAP,,FALSE,REMEDIATION STAGE,NEED (AWAITING RESOURCES),5/11/2012,44.79706741,-68.77326777,-68.77326776999996,44.79706741000007
REM01649,MOOSE RIVER TRUCK STOP,,ROUTE 201,MOOSE RIVER,SOMERSET,VRAP,28.3,TRUE,REMEDY IN PLACE: CLOSED,UNDERTAKING POST-CLOSURE OBLIGATIONS,6/4/2013,45.6617079,-70.27094947,-70.27094946999995,45.66170790000007
REM01650,BROADWAY TEXACO,,594 BROADWAY,BANGOR,PENOBSCOT,VRAP,0.83,TRUE,REMEDY IN PLACE: CLOSED,UNDERTAKING POST-CLOSURE OBLIGATIONS,1/9/2007,44.821305,-68.777718,-68.77771799999994,44.82130500000005
REM01651,KINGFIELD CASH FUELS,,10 DEPOT STREET,RANGELEY,FRANKLIN,VRAP,4.14,FALSE,TRANSFERRED TO OTHER DIVISION,OIL,12/31/2006,44.962894,-70.638498,-70.63849799999997,44.96289400000006
REM01652,MAIN STREET SITES,,532 MAIN STREET/41 DUTTON STREET,BANGOR,PENOBSCOT,VRAP,5.791,FALSE,REMEDY IN PLACE: CLOSED,UNDERTAKING POST-CLOSURE OBLIGATIONS,12/15/2008,44.78853459,-68.77697771,-68.77697770999998,44.78853459000004
REM01657,GRANVILLE LUMBER,,622 MAIN ROAD,HOLDEN,PENOBSCOT,VRAP,13.5,FALSE,REMEDY IN PLACE: CLOSED,UNDERTAKING POST-CLOSURE OBLIGATIONS,4/22/2007,44.75400132,-68.65770124,-68.65770123999994,44.75400132000004
REM01658,COLE HAHN,,224 PARK STREET,LIVERMORE FALLS,ANDROSCOGGIN,VRAP,7.5,TRUE,REMEDY IN PLACE: CLOSED,UNDERTAKING POST-CLOSURE OBLIGATIONS,1/8/2007,44.45956727,-70.17469719,-70.17469718999996,44.459567270000036
REM01659,MILLINOCKET BARK PILE (WEST SIDE),,ROUTE 11/ROUTE 157,MILLINOCKET,PENOBSCOT,VRAP,28,FALSE,REMEDY IN PLACE: CLOSED,UNDERTAKING POST-CLOSURE OBLIGATIONS,11/19/2006,45.63453185,-68.71804431,-68.71804430999998,45.63453185000003
REM01664,GP CHIP MILL HOULTON,,103 B ROAD,HOULTON,AROOSTOOK,VRAP,23.3,TRUE,REMEDY IN PLACE: CLOSED,UNDERTAKING POST-CLOSURE OBLIGATIONS,12/21/2006,46.14953535,-67.84942083,-67.84942082999999,46.149535350000065
REM01665,GP CHIP MILL MILFORD,,123 CHAMPION LANE (STUD MILL RD),MILFORD,PENOBSCOT,VRAP,100,TRUE,REMEDY IN PLACE: CLOSED,UNDERTAKING POST-CLOSURE OBLIGATIONS,3/20/2007,45.01226203,-68.60601129,-68.60601128999997,45.012262030000045
REM01666,GP CHIP MILL MILO,,671 ELM STREET,MILO,PISCATAQUIS,VRAP,100,TRUE,REMEDY IN PLACE: CLOSED,UNDERTAKING POST-CLOSURE OBLIGATIONS,3/20/2007,45.22626437,-68.93349357,-68.93349356999994,45.22626437000008
REM01667,GP MILL,"FORT JAMES PAPER, DIAMOND INTERNATIONAL",24 PORTLAND ROAD,OLD TOWN,PENOBSCOT,VRAP,289,FALSE,REMEDY IN PLACE: CLOSED,UNDERTAKING POST-CLOSURE OBLIGATIONS,1/11/2015,44.91714149,-68.63560192,-68.63560191999994,44.91714149000006
REM01668,TIBBETTS OIL,,106 WEST BROADWAY,LINCOLN,PENOBSCOT,VRAP,1.8,FALSE,TRANSFERRED TO OTHER DIVISION,OIL,1/22/2007,45.36232382,-68.51480397,-68.51480396999995,45.36232382000003
REM01673,NISSEN BAKING,,34 ABBOTT STREET,BREWER,PENOBSCOT,VRAP,4.9,TRUE,REMEDY IN PLACE: CLOSED,UNDERTAKING POST-CLOSURE OBLIGATIONS,6/18/2007,44.78106755,-68.77159404,-68.77159403999997,44.781067550000046
REM01674,UNION STREET CITGO,,551 UNION STREET,BANGOR,PENOBSCOT,VRAP,0.36,FALSE,REMEDY IN PLACE: CLOSED,UNDERTAKING POST-CLOSURE OBLIGATIONS,5/22/2007,44.80748778,-68.79017005,-68.79017004999997,44.80748778000003
REM01678,HATHAWAY PROPERTY,FORMER LOCKWOOD-DUTCHESS MILL COMPLEX,10 WATER STREET,WATERVILLE,KENNEBEC,VRAP,4.19,TRUE,REMEDY IN PLACE: CLOSED,UNDERTAKING POST-CLOSURE OBLIGATIONS,10/20/2009,44.54605312,-69.62948439,-69.62948438999996,44.54605312000007
REM01679,CMP PROPERTY,FORMER LOCKWOOD-DUTCHESS MILL COMPLEX,"6B, 8 & 12 WATER STREET",WATERVILLE,KENNEBEC,VRAP,3.75,FALSE,REMEDY IN PLACE: CLOSED,UNDERTAKING POST-CLOSURE OBLIGATIONS,10/20/2009,44.54645895,-69.62932222,-69.62932221999995,44.546458950000044
REM01686,BELLS SERVICE STATION,,144 MILITARY STREET,HOULTON,AROOSTOOK,VRAP,8,FALSE,REMEDY IN PLACE: CLOSED,UNDERTAKING POST-CLOSURE OBLIGATIONS,11/30/2008,46.12544173,-67.82184294,-67.82184293999995,46.125441730000034
REM01687,MCCAIN FACTORY,I-318-2006,22 GARDNER CREEK ROAD,WASHBURN,AROOSTOOK,BROWNFIELDS,14.04,TRUE,REMEDY IN PLACE: CLOSED,UNDERTAKING POST-CLOSURE OBLIGATIONS,12/16/2012,46.78034647,-68.15709209,-68.15709208999994,46.78034647000004
REM01687,MCCAIN FACTORY,I-318-2006,22 GARDNER CREEK ROAD,WASHBURN,AROOSTOOK,VRAP,14.04,TRUE,REMEDY IN PLACE: CLOSED,UNDERTAKING POST-CLOSURE OBLIGATIONS,12/16/2012,46.78034647,-68.15709209,-68.15709208999994,46.78034647000004
REM01688,GAZELLE PRODUCTS,,1 OLD WATERVILLE ROAD,CHINA,KENNEBEC,BROWNFIELDS,1.2,FALSE,REMEDY IN PLACE: CLOSED,NO (OR DE-MINIMIS) CONTAMINATION LEFT ON SITE,6/30/2007,44.48356179,-69.51616442,-69.51616441999994,44.48356179000007
REM01692,SIPAYIK CORNER STORE,WABANAKI MALL,ROUTE 1 & 190,PERRY,WASHINGTON,BROWNFIELDS,2.5,FALSE,REMEDY IN PLACE: CLOSED,UNDERTAKING POST-CLOSURE OBLIGATIONS,6/4/2007,44.97072664,-67.07488471,-67.07488470999994,44.970726640000066
REM01529,WATERVILLE INDUSTRIES,,RIVER ROAD (ROUTE 104),WATERVILLE,KENNEBEC,RCRA,25,FALSE,REMEDY IN PLACE: CLOSED,UNDERTAKING POST-CLOSURE OBLIGATIONS,6/17/2020,44.50286995,-69.67958946,-69.67958945999999,44.50286995000005
REM01702,RYDER TRUCK RENTAL,,32 HOULTON RD (US RTE 1),PRESQUE ISLE,AROOSTOOK,VRAP,8.6,FALSE,INVESTIGATION STAGE,NEED (AWAITING RESOURCES),4/23/2020,46.65946983,-68.00660788,-68.00660787999993,46.659469830000035
REM01618,MORRISON CHEVROLET,,65 WATER STREET,ELLSWORTH,HANCOCK,BROWNFIELDS,1.85,FALSE,REMEDY IN PLACE: CLOSED,UNDERTAKING POST-CLOSURE OBLIGATIONS,10/29/2006,44.53986853,-68.42471773,-68.42471772999994,44.539868530000035
REM01715,SAUNDERS BROTHERS,"LAFRENIER HOLDINGS I LLC, SAUNDERS AT LOCKE MILLS",256 MAIN STREET,GREENWOOD,OXFORD,VRAP,26.36,FALSE,INVESTIGATION STAGE,ONGOING,12/25/2024,44.40039,-70.705573,-70.70557299999996,44.40039000000007
REM01716,DIAZ CORPORATION,,ROUTE 4,JAY,FRANKLIN,VRAP,66,FALSE,INVESTIGATION STAGE,NEED (AWAITING RESOURCES),8/10/2008,44.50609124,-70.21632699,-70.21632698999997,44.506091240000046
REM01717,MCPHERSON PROPERTY,,369 STATION ROAD,EASTON,AROOSTOOK,VRAP,1.12,FALSE,REMEDY IN PLACE: CLOSED,UNDERTAKING POST-CLOSURE OBLIGATIONS,8/7/2007,46.66369103,-67.91001385,-67.91001384999998,46.66369103000005
REM01720,PROPOSED MSAD#46 SCHOOL,,FERN ROAD,DEXTER,PENOBSCOT,VRAP,48,FALSE,REMEDY IN PLACE: CLOSED,UNDERTAKING POST-CLOSURE OBLIGATIONS,9/9/2010,45.01124442,-69.27291025,-69.27291024999994,45.011244420000025
REM01721,DOC'S PLACE,,50 BANGOR STREET,HOULTON,AROOSTOOK,VRAP,48,TRUE,REMEDY IN PLACE: CLOSED,UNDERTAKING POST-CLOSURE OBLIGATIONS,4/27/2008,46.12349864,-67.84443689,-67.84443688999994,46.12349864000004
REM01732,JONECO,,WEST KINGFIELD ROAD,KINGFIELD,FRANKLIN,BROWNFIELDS,6.57,FALSE,INVESTIGATION STAGE,NEED (AWAITING RESOURCES),4/23/2020,44.96242,-70.162818,-70.16281799999996,44.962420000000066
REM01733,HALE MILL,,ROUTE 120,MEXICO,OXFORD,BROWNFIELDS,7.2,FALSE,REMEDY IN PLACE: CLOSED,UNDERTAKING POST-CLOSURE OBLIGATIONS,8/8/2007,44.58785138,-70.56431234,-70.56431233999996,44.587851380000075
REM01736,COBBS CUSTOM CHROMING,"COBBS AUTO BODY, INC",37-41 PERKINS STREET,BANGOR,PENOBSCOT,VRAP,0.4,FALSE,REMEDIATION STAGE,NEED (AWAITING RESOURCES),8/8/2007,44.80033841,-68.79500466,-68.79500465999996,44.80033841000005
REM01615,NORTHERN PLAZA,,740 CENTRAL STREET,MILLINOCKET,PENOBSCOT,OTHER,7.4,TRUE,REMEDY IN PLACE: CLOSED,UNDERTAKING POST-CLOSURE OBLIGATIONS,8/1/2011,45.65614413,-68.68999391,-68.68999390999994,45.65614413000003
REM01738,AROOSTOOK MILLING CO. - HILLVIEW,"AROOSTOOK GRAIN COMPANY, 15 HILLVIEW AVE.",15 HILLVIEW AVE,HOULTON,AROOSTOOK,BROWNFIELDS,1.37,TRUE,REMEDY IN PLACE: CLOSED,UNDERTAKING POST-CLOSURE OBLIGATIONS,6/17/2014,46.1238281,-67.82786593,-67.82786592999997,46.123828100000026
REM01739,AROOSTOOK MILLING CO. - BUFFALO,,16 BUFFALO STREET,HOULTON,AROOSTOOK,BROWNFIELDS,8.83,FALSE,REMEDY IN PLACE: CLOSED,UNDERTAKING POST-CLOSURE OBLIGATIONS,9/10/2007,46.119092,-67.853673,-67.85367299999996,46.11909200000008
REM01740,AROOSTOOK MILLING CO. - PHYLLIS,,1 PHYLLIS AVE,HOULTON,AROOSTOOK,BROWNFIELDS,0.68,FALSE,REMEDY IN PLACE: CLOSED,UNDERTAKING POST-CLOSURE OBLIGATIONS,9/10/2007,46.12170238,-67.84836107,-67.84836106999995,46.121702380000045
REM01744,MOOSEHEAD MANUFACTURING,PINECREST,5 EAST MAIN STREET,DOVER-FOXCROFT,PISCATAQUIS,BROWNFIELDS,2.035,TRUE,REMEDIATION STAGE,ONGOING,2/15/2013,45.18377089,-69.23068798,-69.23068797999997,45.18377089000006
REM00741,LILY-TULIP,WAREHOUSE COMPLEX,245 NORTH MAIN STREET,OLD TOWN,PENOBSCOT,UNCONTROLLED SITES,3,TRUE,REMEDIATION STAGE,NEED (AWAITING RESOURCES),10/3/2019,44.938436,-68.647347,-68.64734699999997,44.93843600000008
REM01746,MAXWELLS MARKET,MADORE'S MARKET,103 TEMPLE ROAD,FARMINGTON,FRANKLIN,VRAP,0.62,TRUE,REMEDY IN PLACE: CLOSED,UNDERTAKING POST-CLOSURE OBLIGATIONS,1/9/2008,44.66259869,-70.15614331,-70.15614330999995,44.66259869000004
REM01748,TRIANGLE CENTER,,461 STILLWATER AVENUE,BANGOR,PENOBSCOT,VRAP,9.42,FALSE,REMEDY IN PLACE: CLOSED,UNDERTAKING POST-CLOSURE OBLIGATIONS,8/30/2009,44.826215,-68.755658,-68.75565799999998,44.82621500000005
REM01750,CASCADE WOOLEN MILL,,60 CASCADE MILL ROAD,OAKLAND,KENNEBEC,BROWNFIELDS,4.92,FALSE,REMEDIATION STAGE,NEED (AWAITING RESOURCES),11/21/2024,44.55016605,-69.7082072,-69.70820719999995,44.55016605000003
REM01751,CADDOO PROPERTY,,175 WATER STREET,ELLSWORTH,HANCOCK,BROWNFIELDS,1.67,FALSE,INVESTIGATION STAGE,ONGOING,9/4/2007,44.53818,-68.421976,-68.42197599999997,44.53818000000007
REM01752,RYDER PROPERTY,,265 WATER STREET,ELLSWORTH,HANCOCK,BROWNFIELDS,0.25,FALSE,INVESTIGATION STAGE,NEED (AWAITING RESOURCES),4/23/2020,44.53780703,-68.42156297,-68.42156296999997,44.53780703000007
REM01753,MAINE SHELLFISH,,95 WATER STREET,ELLSWORTH,HANCOCK,BROWNFIELDS,1.26,FALSE,INVESTIGATION STAGE,NEED (AWAITING RESOURCES),4/23/2020,44.53926335,-68.42339693,-68.42339692999997,44.539263350000056
REM01754,CITY PARKING LOT,,WATER STREET,ELLSWORTH,HANCOCK,BROWNFIELDS,0.45,FALSE,INVESTIGATION STAGE,NEED (AWAITING RESOURCES),4/23/2020,44.54061599,-68.42404369,-68.42404368999996,44.54061599000005
REM01463,HEAD OF FALLS PROPERTIES,,FRONT STREET,WATERVILLE,KENNEBEC,BROWNFIELDS,12.5,FALSE,REMEDIATION STAGE,NEED (AWAITING RESOURCES),8/8/2004,44.55140631,-69.62747475,-69.62747474999998,44.55140631000006
REM01548,EASTERN FINE PAPER,EASTERN MANUFACTURING FACILITY,517 SOUTH MAIN STREET,BREWER,PENOBSCOT,VRAP,41,FALSE,REMEDY IN PLACE: CLOSED,UNDERTAKING POST-CLOSURE OBLIGATIONS,1/22/2013,44.77164995,-68.78382692,-68.78382691999997,44.77164995000004
REM00560,OLD HOWLAND TANNERY,,OLD COUNTY ROAD,HOWLAND,PENOBSCOT,VRAP,25,TRUE,REMEDY IN PLACE: CLOSED,UNDERTAKING POST-CLOSURE OBLIGATIONS,4/22/2014,45.23678568,-68.65641204,-68.65641203999996,45.236785680000025
REM01756,LAKEVILLE SAWMILL,,ROUND POND,T03 R01 NBPP,PENOBSCOT,VRAP,2,TRUE,REMEDY IN PLACE: CLOSED,UNDERTAKING POST-CLOSURE OBLIGATIONS,10/4/2007,45.33455398,-68.22970299,-68.22970298999996,45.33455398000007
REM01604,OSRAM SYLVANIA,,200 SYLVAN ROAD,BANGOR,PENOBSCOT,RCRA,39.3,TRUE,REMEDY IN PLACE: CLOSED,UNDERTAKING POST-CLOSURE OBLIGATIONS,11/3/2020,44.825399,-68.749218,-68.74921799999998,44.82539900000006
REM01764,MCLEANS AUTO PARTS,,251 & 252 STATION ROAD,EASTON,AROOSTOOK,VRAP,4.07,FALSE,REMEDY IN PLACE: CLOSED,UNDERTAKING POST-CLOSURE OBLIGATIONS,1/28/2008,46.6576453,-67.91098795,-67.91098794999994,46.65764530000007
REM01469,DIAMOND MILL,,MILL ROAD,PERU,OXFORD,BROWNFIELDS,15,FALSE,REMEDY IN PLACE: CLOSED,UNDERTAKING POST-CLOSURE OBLIGATIONS,9/27/2007,44.52647253,-70.45748817,-70.45748816999998,44.526472530000035
REM01741,MILL POND PARK,,MAIN STREET,WASHBURN,AROOSTOOK,BROWNFIELDS,26,FALSE,INVESTIGATION STAGE,NEED (AWAITING RESOURCES),4/23/2020,46.79335408,-68.15580388,-68.15580387999995,46.79335408000003
REM01773,DETROIT AGWAY,,36 NORTH STREET,DETROIT,SOMERSET,VRAP,51.93,FALSE,REMEDY IN PLACE: CLOSED,UNDERTAKING POST-CLOSURE OBLIGATIONS,4/3/2008,44.80085197,-69.3148163,-69.31481629999996,44.80085197000005
REM01777,WINSLOW PUBLIC WORKS,,120 HALIFAX STREET,WINSLOW,KENNEBEC,BROWNFIELDS,2.15,TRUE,REMEDY IN PLACE: CLOSED,UNDERTAKING POST-CLOSURE OBLIGATIONS,8/11/2014,44.54330275,-69.61169882,-69.61169881999996,44.543302750000066
REM01778,399 MAIN STREET,,399 MAIN STREET,JACKMAN,SOMERSET,BROWNFIELDS,2.17,FALSE,INVESTIGATION STAGE,NEED (AWAITING RESOURCES),4/23/2020,45.623836,-70.251373,-70.25137299999994,45.62383600000004
REM01780,10 EELWEIR ROAD,,10 EELWEIR ROAD,PITTSFIELD,SOMERSET,BROWNFIELDS,0.87,FALSE,REMEDY IN PLACE: CLOSED,UNDERTAKING POST-CLOSURE OBLIGATIONS,11/16/2009,44.74854556,-69.40298482,-69.40298481999997,44.748545560000025
REM01787,42 CHAPMAN STREET,WEBBER OIL CO.,42 CHAPMAN STREET,PRESQUE ISLE,AROOSTOOK,BROWNFIELDS,0.65,TRUE,REMEDY IN PLACE: CLOSED,UNDERTAKING POST-CLOSURE OBLIGATIONS,5/5/2013,46.678233,-68.019289,-68.01928899999996,46.678233000000034
REM01789,24 CHAPMAN STREET,BONVILLE PROPERTY,24 CHAPMAN STREET,PRESQUE ISLE,AROOSTOOK,BROWNFIELDS,7.43,TRUE,REMEDY IN PLACE: CLOSED,UNDERTAKING POST-CLOSURE OBLIGATIONS,3/19/2013,46.67880026,-68.01813321,-68.01813320999997,46.67880026000006
REM01788,28 CHAPMAN STREET,HAINES MANUFACTURING,28 CHAPMAN STREET,PRESQUE ISLE,AROOSTOOK,BROWNFIELDS,0.34,TRUE,REMEDY IN PLACE: CLOSED,UNDERTAKING POST-CLOSURE OBLIGATIONS,6/16/2016,46.67815942,-68.01867758,-68.01867757999997,46.67815942000004
REM01790,36 CHAPMAN STREET,LAVWAY PROPERTY,36 CHAPMAN STREET,PRESQUE ISLE,AROOSTOOK,BROWNFIELDS,0.28,TRUE,REMEDY IN PLACE: CLOSED,UNDERTAKING POST-CLOSURE OBLIGATIONS,3/19/2013,46.678809,-68.019071,-68.01907099999994,46.67880900000006
REM01792,DOCKSIDE SPORTS,,2556 MAIN STREET,RANGELEY,FRANKLIN,VRAP,0.26,TRUE,REMEDY IN PLACE: CLOSED,UNDERTAKING POST-CLOSURE OBLIGATIONS,8/11/2008,44.966279,-70.644747,-70.64474699999994,44.96627900000004
REM01801,MAINE BAG COMPANY,,56 SINCOCK STREET,CARIBOU,AROOSTOOK,VRAP,5.87,TRUE,REMEDY IN PLACE: CLOSED,UNDERTAKING POST-CLOSURE OBLIGATIONS,11/12/2008,46.85469222,-68.01727312,-68.01727311999997,46.85469222000006
REM01802,VERMILLION PROPERTY,,252 MAIN STREET,MATTAWAMKEAG,PENOBSCOT,VRAP,6,FALSE,COMPLAINT INVESTIGATED,REVIEWING PRELIMINARY SITE INFORMATION,2/28/2008,45.51184819,-68.35565189,-68.35565188999993,45.51184819000008
REM01803,HIGH STREET EXXON,,238 HIGH STREET,ELLSWORTH,HANCOCK,VRAP,0.62,FALSE,REMEDY IN PLACE: CLOSED,UNDERTAKING POST-CLOSURE OBLIGATIONS,3/10/2009,44.53252774,-68.40753051,-68.40753050999996,44.532527740000035
REM01804,MAINE DOT,,230 HIGH STREET,ELLSWORTH,HANCOCK,VRAP,5,FALSE,REMEDY IN PLACE: CLOSED,UNDERTAKING POST-CLOSURE OBLIGATIONS,3/26/2008,44.53224919,-68.40618201,-68.40618200999995,44.53224919000007
REM01806,HOLIDAY INN,,215 7 217 HIGH STREET,ELLSWORTH,HANCOCK,VRAP,5.7,FALSE,REMEDY IN PLACE: CLOSED,UNDERTAKING POST-CLOSURE OBLIGATIONS,7/13/2008,44.53300884,-68.41065057,-68.41065056999997,44.533008840000036
REM01807,QUODDY BAY PACKING CO,,WATER STREET,LUBEC,WASHINGTON,BROWNFIELDS,3.5,FALSE,INVESTIGATION STAGE,NEED (AWAITING RESOURCES),4/23/2020,44.85600791,-66.98027464,-66.98027463999995,44.85600791000007
REM01808,ISLAND DIVISION BAG MILL,,,RUMFORD,OXFORD,BROWNFIELDS,2.3,FALSE,REMEDY IN PLACE: CLOSED,UNDERTAKING POST-CLOSURE OBLIGATIONS,3/30/2008,44.54835608,-70.54456441,-70.54456440999996,44.548356080000076
REM01809,L & I ATLANTIC,"FORMER L & I ATLANTIC FACILITY-BOMARC, EASTERN ETCHING & MANUFACTURING COMPANY",235 BOMARC ROAD,BANGOR,PENOBSCOT,VRAP,83.58,TRUE,REMEDY IN PLACE: CLOSED,UNDERTAKING POST-CLOSURE OBLIGATIONS,12/4/2011,44.85154594,-68.78476139,-68.78476138999997,44.85154594000005
REM01812,TOWN GRAVEL PIT,HIRAM MAXIM SHOOTING RANGE,GRAVEL PIT ROAD,DOVER-FOXCROFT,PISCATAQUIS,UNCONTROLLED SITES,30.2,FALSE,REMEDY IN PLACE: CLOSED,UNDERTAKING POST-CLOSURE OBLIGATIONS,2/11/2013,45.14881281,-69.24462139,-69.24462138999996,45.14881281000004
REM01816,NORTHERN IRON WORKS,,34 PROGRESS PARK,NEWPORT,PENOBSCOT,VRAP,9.62,FALSE,REMEDY IN PLACE: CLOSED,UNDERTAKING POST-CLOSURE OBLIGATIONS,11/11/2008,44.83393225,-69.28238142,-69.28238141999998,44.83393225000003
REM01819,SMITH'S JUNKYARD HOMESTEAD SITE,,,MEDDYBEMPS,WASHINGTON,UNCONTROLLED SITES,2,FALSE,REMEDY IN PLACE: CLOSED,NO (OR DE-MINIMIS) CONTAMINATION LEFT ON SITE,6/17/2020,45.031195,-67.32262,-67.32261999999997,45.031195000000025
REM01817,SMITH'S JUNKYARD NORTH ANNEX,SMITH'S JUNKYARD,ROUTE 191,MEDDYBEMPS,WASHINGTON,UNCONTROLLED SITES,20,FALSE,INVESTIGATION STAGE,ONGOING,3/30/2007,45.02040259,-67.38427156,-67.38427155999995,45.02040259000006
REM01818,SMITH'S JUNKYARD WEST ANNEX,SMITH'S JUNKYARD,ROUTE 191,COOPER,WASHINGTON,UNCONTROLLED SITES,7,FALSE,INVESTIGATION STAGE,ONGOING,3/30/2007,45.015283,-67.391624,-67.39162399999998,45.01528300000007
REM01824,WILTON TANNERY,TOWN OF WILTON,833 US ROUTE 2 EAST,WILTON,FRANKLIN,UNCONTROLLED SITES,15,TRUE,REMEDY IN PLACE: CLOSED,UNDERTAKING POST-CLOSURE OBLIGATIONS,6/23/2015,44.61398844,-70.18442099,-70.18442098999998,44.61398844000007
REM01828,CORINTH WOOD PRODUCTS,,10 EXETER ROAD,CORINTH,PENOBSCOT,VRAP,1.84,TRUE,REMEDY IN PLACE: CLOSED,UNDERTAKING POST-CLOSURE OBLIGATIONS,11/2/2008,45.00243759,-69.02443278,-69.02443277999998,45.002437590000056
REM01857,STEVE'S CYCLE AND MARINE,,13 MARKET STREET,FORT KENT,AROOSTOOK,BROWNFIELDS,0.26,FALSE,REMEDY IN PLACE: CLOSED,UNDERTAKING POST-CLOSURE OBLIGATIONS,12/12/2010,47.2570585,-68.58908179,-68.58908178999997,47.25705850000003
REM01838,COCCA BROADWAY,"COCCA DEVELOPMENT, LTD",1135 BROADWAY,BANGOR,PENOBSCOT,VRAP,3.98,TRUE,REMEDY IN PLACE: CLOSED,UNDERTAKING POST-CLOSURE OBLIGATIONS,10/8/2008,44.83629532,-68.79248259,-68.79248258999996,44.83629532000003
REM01692,SIPAYIK CORNER STORE,WABANAKI MALL,ROUTE 1 & 190,PERRY,WASHINGTON,VRAP,2.5,FALSE,REMEDY IN PLACE: CLOSED,UNDERTAKING POST-CLOSURE OBLIGATIONS,6/4/2007,44.97072664,-67.07488471,-67.07488470999994,44.970726640000066
REM01843,EMMC PARKING LOT,,489 STATE STREET,BANGOR,PENOBSCOT,VRAP,0.044,FALSE,REMEDY IN PLACE: CLOSED,UNDERTAKING POST-CLOSURE OBLIGATIONS,12/17/2008,44.80749411,-68.75474725,-68.75474724999998,44.80749411000005
REM01789,24 CHAPMAN STREET,BONVILLE PROPERTY,24 CHAPMAN STREET,PRESQUE ISLE,AROOSTOOK,VRAP,7.43,TRUE,REMEDY IN PLACE: CLOSED,UNDERTAKING POST-CLOSURE OBLIGATIONS,3/19/2013,46.67880026,-68.01813321,-68.01813320999997,46.67880026000006
REM01788,28 CHAPMAN STREET,HAINES MANUFACTURING,28 CHAPMAN STREET,PRESQUE ISLE,AROOSTOOK,VRAP,0.34,TRUE,REMEDY IN PLACE: CLOSED,UNDERTAKING POST-CLOSURE OBLIGATIONS,6/16/2016,46.67815942,-68.01867758,-68.01867757999997,46.67815942000004
REM01790,36 CHAPMAN STREET,LAVWAY PROPERTY,36 CHAPMAN STREET,PRESQUE ISLE,AROOSTOOK,VRAP,0.28,TRUE,REMEDY IN PLACE: CLOSED,UNDERTAKING POST-CLOSURE OBLIGATIONS,3/19/2013,46.678809,-68.019071,-68.01907099999994,46.67880900000006
REM01845,MAINE FROZEN FOODS,BIRDSEYE,27 BIRDSEYE AVE,CARIBOU,AROOSTOOK,VRAP,24.3,FALSE,REMEDIATION STAGE,NEED (AWAITING RESOURCES),4/23/2020,46.85212623,-68.00728729,-68.00728728999997,46.85212623000007
REM01848,BANGOR MALL,,663 STILLWATER AVE,BANGOR,PENOBSCOT,VRAP,92,FALSE,REMEDIATION STAGE,NEED (AWAITING RESOURCES),10/26/2008,44.83006841,-68.74876954,-68.74876953999996,44.83006841000008
REM01849,WEBSTER'S MILL,,5 SHORE DRIVE,ORONO,PENOBSCOT,BROWNFIELDS,3.82,FALSE,REMEDY IN PLACE: CLOSED,UNDERTAKING POST-CLOSURE OBLIGATIONS,4/9/2012,44.88345133,-68.66195518,-68.66195517999995,44.88345133000007
REM01850,CHILDREN'S DISCOVERY MUSEUM,,82 GLENN STREET,CARIBOU,AROOSTOOK,BROWNFIELDS,1.68,FALSE,INVESTIGATION STAGE,ONGOING,10/12/2008,46.86582081,-68.00747822,-68.00747821999994,46.86582081000006
REM01858,ANNEX FUELS,,5 LIMESTONE ROAD,FORT FAIRFIELD,AROOSTOOK,BROWNFIELDS,0.26,FALSE,REMEDIATION STAGE,NEED (AWAITING RESOURCES),4/23/2020,46.77309775,-67.83512815,-67.83512814999995,46.773097750000034
REM01853,BROWN'S MILL,MAINE LEATHERS,117 VAUGHN ROAD,DOVER-FOXCROFT,PISCATAQUIS,BROWNFIELDS,6,TRUE,REMEDY IN PLACE: CLOSED,UNDERTAKING POST-CLOSURE OBLIGATIONS,2/3/2014,45.18357229,-69.21860315,-69.21860314999998,45.18357229000003
REM01686,BELLS SERVICE STATION,,144 MILITARY STREET,HOULTON,AROOSTOOK,BROWNFIELDS,8,FALSE,REMEDY IN PLACE: CLOSED,UNDERTAKING POST-CLOSURE OBLIGATIONS,11/30/2008,46.12544173,-67.82184294,-67.82184293999995,46.125441730000034
REM00514,MAINE LEATHERS COMPANY,MACARTHUR PROPERTY,117 VAUGHN ROAD,DOVER-FOXCROFT,PISCATAQUIS,BROWNFIELDS,36,TRUE,REMEDY IN PLACE: CLOSED,UNDERTAKING POST-CLOSURE OBLIGATIONS,2/3/2014,45.18283617,-69.21770402,-69.21770401999999,45.18283617000003
REM00462,BREWER JUNKYARD,MAPLE STREET PARK DUPLICATE OF REM03586,MAPLE STREET,BREWER,PENOBSCOT,BROWNFIELDS,7.13,TRUE,REMEDY IN PLACE: CLOSED,UNDERTAKING POST-CLOSURE OBLIGATIONS,9/29/2004,44.79070405,-68.76450382,-68.76450381999996,44.790704050000045
REM01855,DOWNTOWN MILO,,26 MAIN STREET,MILO,PISCATAQUIS,BROWNFIELDS,,FALSE,REMEDIATION STAGE,NEED (AWAITING RESOURCES),3/17/2009,45.25238221,-68.98690771,-68.98690770999997,45.252382210000064
REM01744,MOOSEHEAD MANUFACTURING,PINECREST,5 EAST MAIN STREET,DOVER-FOXCROFT,PISCATAQUIS,VRAP,2.035,TRUE,REMEDIATION STAGE,ONGOING,2/15/2013,45.18377089,-69.23068798,-69.23068797999997,45.18377089000006
REM01859,RLC NORTHERN ENTERPRISE,,228 MARKET STREET,FORT KENT,AROOSTOOK,BROWNFIELDS,1.9,FALSE,REMEDIATION STAGE,NEED (AWAITING RESOURCES),4/23/2020,47.24562249,-68.5766937,-68.57669369999996,47.24562249000007
REM01860,ROD'S SERVICE,,463 MAIN ROAD,BRIDGEWATER,AROOSTOOK,BROWNFIELDS,0.16,FALSE,INVESTIGATION STAGE,NEED (AWAITING RESOURCES),4/23/2020,46.424314,-67.843308,-67.84330799999998,46.42431400000004
REM01862,MAPLETON AUTO,,679 MAPLETON ROAD,MAPLETON,AROOSTOOK,BROWNFIELDS,24,TRUE,REMEDY IN PLACE: CLOSED,UNDERTAKING POST-CLOSURE OBLIGATIONS,3/3/2010,46.68200162,-68.05717175,-68.05717174999995,46.68200162000005
REM01874,PELOTTE PROPERTY,,727 WEST RIVER ROAD,WATERVILLE,KENNEBEC,VRAP,4.1,TRUE,REMEDY IN PLACE: CLOSED,UNDERTAKING POST-CLOSURE OBLIGATIONS,11/15/2010,44.51239889,-69.67736877,-69.67736876999999,44.51239889000004
REM01876,FORMER IRVING OIL SERVICE STATION,,42 BAY STREET,WINSLOW,KENNEBEC,VRAP,0.47,FALSE,INVESTIGATION STAGE,NEED (AWAITING RESOURCES),1/25/2018,44.542662,-69.626299,-69.62629899999996,44.542662000000064
REM01879,FAMILY DOLLAR STORE,,38 SCHOOL STREET,BANGOR,PENOBSCOT,VRAP,0.75,TRUE,REMEDY IN PLACE: CLOSED,UNDERTAKING POST-CLOSURE OBLIGATIONS,5/18/2010,44.82576265,-68.77878355,-68.77878354999996,44.82576265000006
REM00522,BERRY SITE,BERRY RESIDENCE DIS #195,BENTON AVE.,BENTON,KENNEBEC,UNCONTROLLED SITES,,FALSE,TRANSFERRED TO OTHER DIVISION,OTHER,3/18/2009,44.585901,-69.585593,-69.58559299999996,44.585901000000035
REM01881,TREWORGY PROPERTY,PROPOSED FAMILY DOLLAR STORE,"10, 12 & 14 ELM STREET",GUILFORD,PISCATAQUIS,VRAP,0.43,TRUE,REMEDY IN PLACE: CLOSED,UNDERTAKING POST-CLOSURE OBLIGATIONS,4/22/2015,45.16702924,-69.38663075,-69.38663074999994,45.16702924000003
REM00434,BANGOR INTERNATIONAL AIRPORT,,287 GODFREY BOULEVARD,BANGOR,PENOBSCOT,UNCONTROLLED SITES,,FALSE,COMPLAINT INVESTIGATED,REVIEWING PRELIMINARY SITE INFORMATION,4/8/2009,44.80838399,-68.81651835,-68.81651834999997,44.80838399000004
REM01883,DOUGLASS & ROKES,,SWANVILLE ROAD,BELFAST,WALDO,VRAP,6.5,TRUE,REMEDY IN PLACE: CLOSED,UNDERTAKING POST-CLOSURE OBLIGATIONS,7/12/2009,44.44567773,-69.00248686,-69.00248685999998,44.44567773000006
REM01884,GAGNE PRECAST CONCRETE,,1506 STATE STREET,VEAZIE,PENOBSCOT,VRAP,28,TRUE,REMEDIATION STAGE,NEED (AWAITING RESOURCES),5/23/2024,44.84301693,-68.70799602,-68.70799601999994,44.84301693000003
REM01902,LUCAS ENTERPRISES,,1499 RIVERSIDE DR. (RTE 201),VASSALBORO,KENNEBEC,UNCONTROLLED SITES,,FALSE,REMEDIATION STAGE,NEED (AWAITING RESOURCES),6/8/2009,44.40866137,-69.70635984,-69.70635983999995,44.40866137000006
REM01904,QUINNS AUTO REPAIR,,2520 US ROUTE 2,HERMON,PENOBSCOT,BROWNFIELDS,0.85,FALSE,REMEDY IN PLACE: CLOSED,UNDERTAKING POST-CLOSURE OBLIGATIONS,1/5/2010,44.80977591,-68.91152303,-68.91152302999996,44.80977591000004
REM01908,JIM'S DRY CLEANER,"
JIM'S DRY CLEANING",110 AROOSTOOK AVE,MILLINOCKET,PENOBSCOT,UNCONTROLLED SITES,0.11,FALSE,REMEDIATION STAGE,NEED (AWAITING RESOURCES),3/1/2019,45.65409014,-68.70826716,-68.70826715999993,45.65409014000005
REM01909,CURTIS GARAGE,,6 PORTAGE ROAD,ASHLAND,AROOSTOOK,BROWNFIELDS,7.6,FALSE,REMEDIATION STAGE,NEED (AWAITING RESOURCES),4/23/2020,46.63281351,-68.42015196,-68.42015195999994,46.63281351000006
REM01910,JJ PARADIS OIL CO,,STATE STREET,VAN BUREN,AROOSTOOK,BROWNFIELDS,0.65,FALSE,REMEDY IN PLACE: CLOSED,UNDERTAKING POST-CLOSURE OBLIGATIONS,12/7/2011,47.15250597,-67.93177303,-67.93177302999999,47.15250597000005
REM01916,BROADWAY DRY CLEANER,490 BROADWAY OR FORMER DRY CLEANER IN FILE ROOM DATABASE; BANGOR REDEMPTION AND BEVERAGE;,490 BROADWAY,BANGOR,PENOBSCOT,UNCONTROLLED SITES,0.61,TRUE,REMEDY IN PLACE: CLOSED,UNDERTAKING POST-CLOSURE OBLIGATIONS,1/12/2023,44.8182197,-68.77449855,-68.77449854999998,44.81821970000004
REM01899,FOSTER PROPERTY,,HIGH STREET,ELLSWORTH,HANCOCK,BROWNFIELDS,9.9,FALSE,INVESTIGATION STAGE,NEED (AWAITING RESOURCES),4/23/2020,44.53275461,-68.41237453,-68.41237452999997,44.53275461000004
REM01922,SAMMIS PROPERTY,,HANCOCK POINT WEST,HANCOCK,HANCOCK,BROWNFIELDS,5,FALSE,REMEDY IN PLACE: CLOSED,UNDERTAKING POST-CLOSURE OBLIGATIONS,9/26/2010,44.52723221,-68.25584922,-68.25584921999996,44.52723221000008
REM01967,WILTON MUNICIPAL LANDFILL - OLD,WILTON TOWN DUMP,MUNSON ROAD,WILTON,FRANKLIN,LANDFILL CLOSURE,5,TRUE,REMEDY IN PLACE: CLOSED,UNDERTAKING POST-CLOSURE OBLIGATIONS,6/1/2010,44.595094,-70.195796,-70.19579599999997,44.595094000000074
REM01924,CLARKS HARDWARE,,406 MAIN STREET,BINGHAM,SOMERSET,VRAP,1.7,FALSE,INVESTIGATION STAGE,NEED (AWAITING RESOURCES),9/1/2020,45.06417772,-69.88396049,-69.88396048999994,45.06417772000003
REM01930,P & H AUTO,,255 AROOSTOOK AVENUE,MILLINOCKET,PENOBSCOT,VRAP,0.2,TRUE,REMEDY IN PLACE: CLOSED,UNDERTAKING POST-CLOSURE OBLIGATIONS,4/22/2010,45.65687422,-68.70788563,-68.70788562999996,45.65687422000008
REM01931,SMITH PROPERTY,,54 WILSON STREET,BREWER,PENOBSCOT,VRAP,0.48,TRUE,REMEDY IN PLACE: CLOSED,UNDERTAKING POST-CLOSURE OBLIGATIONS,9/7/2011,44.79523684,-68.76650202,-68.76650201999996,44.79523684000003
REM01932,OLD TOWN CANOE,,35 MIDDLE STREET,OLD TOWN,PENOBSCOT,BROWNFIELDS,5,FALSE,REMEDY IN PLACE: CLOSED,UNDERTAKING POST-CLOSURE OBLIGATIONS,11/18/2015,44.93651535,-68.6488633,-68.64886329999996,44.936515350000036
REM01933,DOT HOWLAND BRIDGE,PISCATAQUIS RIVER BRIDGE RECONSTRUCTION,INTERSECTION OF LAGRANGE ROAD AND COFFIN STREET,HOWLAND,PENOBSCOT,VRAP,1.9,TRUE,REMEDY IN PLACE: CLOSED,UNDERTAKING POST-CLOSURE OBLIGATIONS,6/6/2013,45.238417,-68.66033,-68.66032999999999,45.23841700000003
REM01935,EMARC,,WILLOW STREET,EAST MACHIAS,WASHINGTON,VRAP,1.1,FALSE,INVESTIGATION STAGE,ONGOING,4/23/2020,44.735254,-67.391454,-67.39145399999995,44.735254000000054
REM01936,FORMER HAMILTON STATION,,891 STATE HIGHWAY (RTE 3),BAR HARBOR,HANCOCK,VRAP,40.13,TRUE,REMEDY IN PLACE: CLOSED,NO (OR DE-MINIMIS) CONTAMINATION LEFT ON SITE,1/31/2023,44.43618272,-68.30801424,-68.30801423999998,44.43618272000003
REM01942,"IOCMA, INC",,229 MAIN STREET,MADAWASKA,AROOSTOOK,VRAP,1,TRUE,REMEDY IN PLACE: CLOSED,UNDERTAKING POST-CLOSURE OBLIGATIONS,8/4/2010,47.35614734,-68.33122057,-68.33122056999997,47.356147340000064
REM01944,RUTLAND REALTY TRUST,,,PLYMOUTH,PENOBSCOT,VRAP,700,FALSE,REMEDY IN PLACE: CLOSED,UNDERTAKING POST-CLOSURE OBLIGATIONS,3/21/2010,44.78178154,-69.22634332,-69.22634331999996,44.781781540000054
REM01945,KELLEHER PROPERTY,SMALL ROAD PROPERTY,SMALL ROAD,PLYMOUTH,PENOBSCOT,VRAP,52.5,FALSE,REMEDY IN PLACE: CLOSED,UNDERTAKING POST-CLOSURE OBLIGATIONS,3/21/2010,44.73850926,-69.20541488,-69.20541487999998,44.73850926000006
REM01809,L & I ATLANTIC,"FORMER L & I ATLANTIC FACILITY-BOMARC, EASTERN ETCHING & MANUFACTURING COMPANY",235 BOMARC ROAD,BANGOR,PENOBSCOT,BROWNFIELDS,83.58,TRUE,REMEDY IN PLACE: CLOSED,UNDERTAKING POST-CLOSURE OBLIGATIONS,12/4/2011,44.85154594,-68.78476139,-68.78476138999997,44.85154594000005
REM01946,MADISON STICK MILL,,5 WATER STREET,MADISON,SOMERSET,BROWNFIELDS,1.35,FALSE,REMEDIATION STAGE,NEED (AWAITING RESOURCES),4/23/2020,44.79885512,-69.88577022,-69.88577021999998,44.79885512000004
REM01955,BUILDING 278,,498 MAINE AVENUE,BANGOR,PENOBSCOT,BROWNFIELDS,3,TRUE,REMEDIATION STAGE,NEED (AWAITING RESOURCES),4/6/2020,44.81286646,-68.80631343,-68.80631342999999,44.812866460000066
REM01955,BUILDING 278,,498 MAINE AVENUE,BANGOR,PENOBSCOT,FEDERAL FACILITIES,3,TRUE,REMEDIATION STAGE,NEED (AWAITING RESOURCES),4/6/2020,44.81286646,-68.80631343,-68.80631342999999,44.812866460000066
REM01958,G.E. GODING,,837 WEST BROADWAY,LINCOLN,PENOBSCOT,VRAP,23.5,FALSE,REMEDY IN PLACE: CLOSED,UNDERTAKING POST-CLOSURE OBLIGATIONS,8/9/2011,45.33723383,-68.57738759,-68.57738758999994,45.33723383000006
REM01959,G.E. GODING,,888 EAST MAIN STREET,EAST MACHIAS,WASHINGTON,VRAP,25,FALSE,REMEDY IN PLACE: CLOSED,UNDERTAKING POST-CLOSURE OBLIGATIONS,8/9/2011,44.72236709,-67.41544268,-67.41544267999996,44.722367090000034
REM01960,G.E. GODING,,ROUTE 11/57,MILLINOCKET,PENOBSCOT,VRAP,10.9,FALSE,REMEDY IN PLACE: CLOSED,UNDERTAKING POST-CLOSURE OBLIGATIONS,8/9/2011,45.66833859,-68.62951842,-68.62951841999995,45.668338590000076
REM01966,GENERAL STORE,,"5, 7 & 9 MAIN STREET",CAMBRIDGE,SOMERSET,BROWNFIELDS,1,FALSE,INVESTIGATION STAGE,NEED (AWAITING RESOURCES),4/23/2020,45.02294389,-69.47285288,-69.47285287999995,45.02294389000008
REM01967,WILTON MUNICIPAL LANDFILL - OLD,WILTON TOWN DUMP,MUNSON ROAD,WILTON,FRANKLIN,BROWNFIELDS,5,TRUE,REMEDY IN PLACE: CLOSED,UNDERTAKING POST-CLOSURE OBLIGATIONS,6/1/2010,44.595094,-70.195796,-70.19579599999997,44.595094000000074
REM01922,SAMMIS PROPERTY,,HANCOCK POINT WEST,HANCOCK,HANCOCK,VRAP,5,FALSE,REMEDY IN PLACE: CLOSED,UNDERTAKING POST-CLOSURE OBLIGATIONS,9/26/2010,44.52723221,-68.25584922,-68.25584921999996,44.52723221000008
REM01970,VETERANS MEMORIAL PARK,,83 GLENN STREET,CARIBOU,AROOSTOOK,BROWNFIELDS,1.12,FALSE,INVESTIGATION STAGE,ONGOING,10/15/2010,46.8661979,-68.00644474,-68.00644473999995,46.86619790000003
REM01971,GAGNON PROPERTY,,324 STATION ROAD,EASTON,AROOSTOOK,VRAP,0.68,FALSE,REMEDY IN PLACE: CLOSED,UNDERTAKING POST-CLOSURE OBLIGATIONS,7/1/2010,46.66261258,-67.91073612,-67.91073611999997,46.66261258000003
REM01890,MACHIAS CLEANING AND LAUNDRY,MACHIAS CLEANERS AND LAUNDRY,12 COLONIAL WAY,MACHIAS,WASHINGTON,BROWNFIELDS,0.15,FALSE,REMEDIATION STAGE,NEED (AWAITING RESOURCES),8/10/2015,44.714146,-67.459386,-67.45938599999994,44.71414600000003
REM01973,15 SEA STREET,,15 SEA STREET,EASTPORT,WASHINGTON,BROWNFIELDS,1.2,FALSE,REMEDIATION STAGE,NEED (AWAITING RESOURCES),4/22/2020,44.903453,-66.984147,-66.98414699999995,44.90345300000007
REM01974,BRIDGES PROPERTY,,428 MAIN STREET,CALAIS,WASHINGTON,BROWNFIELDS,1.4,FALSE,REMEDIATION STAGE,NEED (AWAITING RESOURCES),4/23/2020,45.189084,-67.276019,-67.27601899999996,45.18908400000004
REM01975,ANTONE'S TRIANGLE STORE,,423 U.S. ROUTE 1,PEMBROKE,WASHINGTON,BROWNFIELDS,0.5,FALSE,REMEDY IN PLACE: CLOSED,UNDERTAKING POST-CLOSURE OBLIGATIONS,8/25/2011,44.94748495,-67.18249778,-67.18249777999995,44.947484950000046
REM01977,VAN LOON PROPERTY,,,ELLSWORTH,HANCOCK,BROWNFIELDS,,FALSE,REMEDY IN PLACE: CLOSED,UNDERTAKING POST-CLOSURE OBLIGATIONS,6/23/2010,44.53548204,-68.41472451,-68.41472450999999,44.53548204000003
REM01979,PRIMARY SCHOOL,,24 SCHOOL STREET,WILTON,FRANKLIN,BROWNFIELDS,0.58,FALSE,REMEDIATION STAGE,NEED (AWAITING RESOURCES),4/23/2020,44.591191,-70.231388,-70.23138799999998,44.59119100000004
REM01981,THIBODEAU PROPERTY,,3 VILLAGE ROAD,FORT KENT,AROOSTOOK,BROWNFIELDS,0.5,FALSE,REMEDIATION STAGE,NEED (AWAITING RESOURCES),4/23/2020,47.24485304,-68.60730895,-68.60730894999995,47.244853040000066
REM01986,WALDO COUNTY SHERIFF,"45 CONGRESS STREET, OLD WALDO COUNTY JAIL",45 CONGRESS STREET,BELFAST,WALDO,VRAP,3,TRUE,REMEDIATION STAGE,NEED (AWAITING RESOURCES),10/14/2015,44.42219963,-69.00977335,-69.00977334999993,44.42219963000008
REM01987,I-95 MOBIL,,247 NORTH STREET,HOULTON,AROOSTOOK,VRAP,1.38,FALSE,REMEDY IN PLACE: CLOSED,UNDERTAKING POST-CLOSURE OBLIGATIONS,4/24/2013,46.14202609,-67.83954086,-67.83954085999994,46.14202609000006
REM01988,CYR CONSTRUCTION,,217 MAIN STREET,CARIBOU,AROOSTOOK,VRAP,17,FALSE,INVESTIGATION STAGE,NEED (AWAITING RESOURCES),9/16/2010,46.83046128,-68.00780051,-68.00780050999998,46.830461280000065
REM01990,SOUCY PROPERTY,,64 EAST MAIN STREET,FORT KENT,AROOSTOOK,VRAP,0.66,FALSE,INVESTIGATION STAGE,NEED (AWAITING RESOURCES),9/26/2010,47.25614191,-68.59069158,-68.59069157999994,47.25614191000005
REM01998,MACHIAS SERVICE CENTER,,75 BROADWAY,MACHIAS,WASHINGTON,VRAP,8.74,FALSE,REMEDY IN PLACE: CLOSED,UNDERTAKING POST-CLOSURE OBLIGATIONS,12/30/2014,44.72104335,-67.46653263,-67.46653262999996,44.72104335000006
REM01918,T&A SERVICE CENTER,,19 MAIN STREET,LIMESTONE,AROOSTOOK,BROWNFIELDS,0.39,FALSE,INVESTIGATION STAGE,ONGOING,2/9/2011,46.91128278,-67.82605263,-67.82605262999994,46.91128278000008
REM01918,T&A SERVICE CENTER,,19 MAIN STREET,LIMESTONE,AROOSTOOK,VRAP,0.39,FALSE,INVESTIGATION STAGE,ONGOING,2/9/2011,46.91128278,-67.82605263,-67.82605262999994,46.91128278000008
REM01955,BUILDING 278,,498 MAINE AVENUE,BANGOR,PENOBSCOT,VRAP,3,TRUE,REMEDIATION STAGE,NEED (AWAITING RESOURCES),4/6/2020,44.81286646,-68.80631343,-68.80631342999999,44.812866460000066
REM01849,WEBSTER'S MILL,,5 SHORE DRIVE,ORONO,PENOBSCOT,VRAP,3.82,FALSE,REMEDY IN PLACE: CLOSED,UNDERTAKING POST-CLOSURE OBLIGATIONS,4/9/2012,44.88345133,-68.66195518,-68.66195517999995,44.88345133000007
REM02005,COLUMBIAN FACTORY,,135 MAIN STREET,LUBEC,WASHINGTON,BROWNFIELDS,7,TRUE,REMEDY IN PLACE: CLOSED,UNDERTAKING POST-CLOSURE OBLIGATIONS,10/11/2017,44.85544172,-66.99304461,-66.99304460999997,44.855441720000044
REM01787,42 CHAPMAN STREET,WEBBER OIL CO.,42 CHAPMAN STREET,PRESQUE ISLE,AROOSTOOK,BROWNFIELDS,0.65,TRUE,REMEDY IN PLACE: CLOSED,UNDERTAKING POST-CLOSURE OBLIGATIONS,5/5/2013,46.678233,-68.019289,-68.01928899999996,46.678233000000034
REM02008,INTERSTATE AUTOMOTIVE,,340 ODLIN ROAD,BANGOR,PENOBSCOT,VRAP,0.37,FALSE,REMEDIATION STAGE,NEED (AWAITING RESOURCES),8/16/2020,44.78842255,-68.8118981,-68.81189809999995,44.788422550000064
REM00447,STINSON CANNING CO,COMBINES WITH 45 FRONT STREET,101 FRONT STREET,BELFAST,WALDO,BROWNFIELDS,4.3,TRUE,REMEDY IN PLACE: CLOSED,UNDERTAKING POST-CLOSURE OBLIGATIONS,11/28/2013,44.42969799,-69.00950104,-69.00950103999998,44.42969799000008
REM02012,QUIMBY MILL,,LANDER AVENUE,BINGHAM,SOMERSET,BROWNFIELDS,,FALSE,INVESTIGATION STAGE,ONGOING,4/29/2019,45.054759,-69.886283,-69.88628299999993,45.05475900000005
REM02011,2 DEPOT STREET,,2 DEPOT STREET,LIVERMORE FALLS,ANDROSCOGGIN,BROWNFIELDS,1.14,FALSE,REMEDIATION STAGE,NEED (AWAITING RESOURCES),2/15/2011,44.472741,-70.189228,-70.18922799999996,44.47274100000004
REM02015,ARNOLD TRAIL QUALITY FUELS,,108 MAIN STREET,EUSTIS,FRANKLIN,VRAP,0.91,TRUE,REMEDY IN PLACE: CLOSED,UNDERTAKING POST-CLOSURE OBLIGATIONS,10/26/2011,45.14019386,-70.43937539,-70.43937538999995,45.14019386000007
REM00495,BESSE TANNERY,,SPRING STREET,CLINTON,KENNEBEC,VRAP,5.18,TRUE,REMEDY IN PLACE: CLOSED,UNDERTAKING POST-CLOSURE OBLIGATIONS,1/9/2012,44.63909308,-69.50591198,-69.50591197999995,44.639093080000066
REM02021,QUINN PARCEL,,KITTREDGE ROAD,BANGOR,PENOBSCOT,VRAP,105,FALSE,REMEDY IN PLACE: CLOSED,UNDERTAKING POST-CLOSURE OBLIGATIONS,6/29/2011,44.85880227,-68.74744424,-68.74744423999994,44.85880227000007
REM01833,AROOSTOOK DRY CLEANER,,98 SWEDEN ST.,CARIBOU,AROOSTOOK,VRAP,0.29,FALSE,REMEDY IN PLACE: CLOSED,UNDERTAKING POST-CLOSURE OBLIGATIONS,5/15/2011,46.85979947,-68.01684787,-68.01684786999994,46.85979947000004
REM02025,HARTLEYS NEWPORT,,30 MAIN STREET,NEWPORT,PENOBSCOT,VRAP,1.63,FALSE,INVESTIGATION STAGE,NEED (AWAITING RESOURCES),8/30/2011,44.83783313,-69.28665399,-69.28665398999993,44.837833130000035
REM00514,MAINE LEATHERS COMPANY,MACARTHUR PROPERTY,117 VAUGHN ROAD,DOVER-FOXCROFT,PISCATAQUIS,VRAP,36,TRUE,REMEDY IN PLACE: CLOSED,UNDERTAKING POST-CLOSURE OBLIGATIONS,2/3/2014,45.18283617,-69.21770402,-69.21770401999999,45.18283617000003
REM02026,VARNUM FARMS,,1769 RIVER ROAD,SEBEC,PISCATAQUIS,VRAP,2,FALSE,REMEDY IN PLACE: CLOSED,UNDERTAKING POST-CLOSURE OBLIGATIONS,10/18/2011,45.197843,-69.142614,-69.14261399999998,45.197843000000034
REM02027,FEDEX BUILDING,,510 PERRY ROAD,BANGOR,PENOBSCOT,VRAP,6.3,FALSE,REMEDY IN PLACE: CLOSED,UNDERTAKING POST-CLOSURE OBLIGATIONS,8/21/2011,44.78313278,-68.80966955,-68.80966954999997,44.783132780000074
REM02029,FLEWELLING PROPERTY,,HOULTON ROAD (ROUTE 1),FORT FAIRFIELD,AROOSTOOK,VRAP,112.23,FALSE,INVESTIGATION STAGE,NEED (AWAITING RESOURCES),4/23/2020,46.69706204,-67.87056812,-67.87056811999997,46.69706204000005
REM02032,CONSEA PROPERTY,,1 COUNTY ROAD,EASTPORT,WASHINGTON,BROWNFIELDS,2.8,FALSE,REMEDY IN PLACE: CLOSED,UNDERTAKING POST-CLOSURE OBLIGATIONS,2/29/2012,44.894519,-66.992684,-66.99268399999994,44.89451900000006
REM02033,MCCS PARCEL GOODWILL HINCKLEY,,ROUTE 201,FAIRFIELD,SOMERSET,VRAP,697,FALSE,REMEDY IN PLACE: CLOSED,UNDERTAKING POST-CLOSURE OBLIGATIONS,9/13/2011,44.66857431,-69.63081334,-69.63081333999997,44.668574310000054
REM02038,MOOSE ISLAND MARINE,,19 DEEP COVE ROAD,EASTPORT,WASHINGTON,BROWNFIELDS,4.3,FALSE,INVESTIGATION STAGE,NEED (AWAITING RESOURCES),4/23/2020,44.907827,-67.012344,-67.01234399999998,44.907827000000054
REM02039,ELLSWORTH FEED & SEED,,18 MERRILL LANE,ELLSWORTH,HANCOCK,BROWNFIELDS,3.84,FALSE,INVESTIGATION STAGE,NEED (AWAITING RESOURCES),4/23/2020,44.53725194,-68.41075272,-68.41075271999995,44.53725194000003
REM02041,FUTURE COMMUNITY CENTER,,U.S. ROUTE 1 & WEST STREET,HARRINGTON,WASHINGTON,BROWNFIELDS,2,FALSE,REMEDIATION STAGE,NEED (AWAITING RESOURCES),4/23/2020,44.620276,-67.814199,-67.81419899999997,44.62027600000005
REM02042,FIBER EXTRUSION,,ROUTE 190 & VANASSE ROAD,EASTPORT,WASHINGTON,BROWNFIELDS,6,TRUE,REMEDY IN PLACE: CLOSED,NO (OR DE-MINIMIS) CONTAMINATION LEFT ON SITE,1/1/2019,44.9344766,-67.02676686,-67.02676685999995,44.93447660000004
REM02043,SCHOPPEES GARAGE,,US ROUTE 1,JONESBORO,WASHINGTON,BROWNFIELDS,1,TRUE,REMEDY IN PLACE: CLOSED,UNDERTAKING POST-CLOSURE OBLIGATIONS,3/3/2016,44.660914,-67.574254,-67.57425399999994,44.66091400000005
REM02048,GREAT NORTHERN PAPER,,50 MAIN STREET,EAST MILLINOCKET,PENOBSCOT,VRAP,385,FALSE,REMEDY IN PLACE: CLOSED,UNDERTAKING POST-CLOSURE OBLIGATIONS,1/31/2025,45.62286924,-68.57430843,-68.57430842999997,45.62286924000006
REM02049,GREAT NORTHERN PAPER,,1 KATAHDIN AVENUE,MILLINOCKET,PENOBSCOT,VRAP,1379,FALSE,REMEDY IN PLACE: CLOSED,UNDERTAKING POST-CLOSURE OBLIGATIONS,11/16/2018,45.64550837,-68.70421845,-68.70421844999998,45.64550837000007
REM02061,CARL'S QUICK STOP,,951 MAIN STREET,VASSALBORO,KENNEBEC,BROWNFIELDS,0.28,FALSE,REMEDY IN PLACE: CLOSED,NO (OR DE-MINIMIS) CONTAMINATION LEFT ON SITE,12/31/2011,44.48710213,-69.62297149,-69.62297148999994,44.48710213000004
REM01910,JJ PARADIS OIL CO,,STATE STREET,VAN BUREN,AROOSTOOK,VRAP,0.65,FALSE,REMEDY IN PLACE: CLOSED,UNDERTAKING POST-CLOSURE OBLIGATIONS,12/7/2011,47.15250597,-67.93177303,-67.93177302999999,47.15250597000005
REM02074,AMERICAN WOOLEN MILL,SEBASTICOOK MILL,OAK GROVE ROAD/ROUTE 32 INTERSECTION,VASSALBORO,KENNEBEC,UNCONTROLLED SITES,,FALSE,INVESTIGATION STAGE,ONGOING,6/17/2020,44.48646713,-69.62366349,-69.62366348999996,44.48646713000005
REM02079,CROCKETT PUMP STATION,,57 SMYRNA STREET,HOULTON,AROOSTOOK,VRAP,3,TRUE,REMEDY IN PLACE: CLOSED,UNDERTAKING POST-CLOSURE OBLIGATIONS,12/17/2012,46.13095349,-67.84640615,-67.84640614999995,46.13095349000008
REM02032,CONSEA PROPERTY,,1 COUNTY ROAD,EASTPORT,WASHINGTON,VRAP,2.8,FALSE,REMEDY IN PLACE: CLOSED,UNDERTAKING POST-CLOSURE OBLIGATIONS,2/29/2012,44.894519,-66.992684,-66.99268399999994,44.89451900000006
REM02081,557 WILSON STREET,BREWER PIZZA HUT,557 WILSON STREET,BREWER,PENOBSCOT,VRAP,1.62,FALSE,REMEDY IN PLACE: CLOSED,UNDERTAKING POST-CLOSURE OBLIGATIONS,1/22/2012,44.77941713,-68.74177031,-68.74177030999994,44.77941713000007
REM01894,ALGARS,,8 MONROE STREET,CALAIS,WASHINGTON,UNCONTROLLED SITES,0.9,FALSE,REMEDY IN PLACE: CLOSED,UNDERTAKING POST-CLOSURE OBLIGATIONS,6/29/2013,45.18851664,-67.28006592,-67.28006591999997,45.188516640000046
REM02085,PRIDE MANUFACTURING,,187 WATER STREET,GUILFORD,PISCATAQUIS,VRAP,39.42,TRUE,REMEDY IN PLACE: CLOSED,UNDERTAKING POST-CLOSURE OBLIGATIONS,2/26/2012,45.17283767,-69.34987274,-69.34987273999997,45.172837670000035
REM02085,PRIDE MANUFACTURING,,187 WATER STREET,GUILFORD,PISCATAQUIS,BROWNFIELDS,39.42,TRUE,REMEDY IN PLACE: CLOSED,UNDERTAKING POST-CLOSURE OBLIGATIONS,2/26/2012,45.17283767,-69.34987274,-69.34987273999997,45.172837670000035
REM01892,BUTLERS CLEANERS,BUTLERS SKOWHEGAN,19 WATERVILLE ROAD,SKOWHEGAN,SOMERSET,VRAP,0.5,TRUE,REMEDY IN PLACE: CLOSED,UNDERTAKING POST-CLOSURE OBLIGATIONS,10/16/2012,44.762584,-69.715316,-69.71531599999997,44.76258400000006
REM02099,ASHLAND CENTRAL SCHOOL,,,ASHLAND,AROOSTOOK,BROWNFIELDS,4,FALSE,REMEDIATION STAGE,NEED (AWAITING RESOURCES),4/23/2020,46.62989415,-68.40026431,-68.40026430999995,46.62989415000004
REM02101,ALANS TOWING,,79 WATERVILLE ROAD,BELFAST,WALDO,VRAP,3.52,FALSE,REMEDY IN PLACE: CLOSED,NO (OR DE-MINIMIS) CONTAMINATION LEFT ON SITE,9/26/2012,44.44099594,-69.04190179,-69.04190178999994,44.44099594000005
REM02102,CENTRAL HALL,,152 EAST MAIN STREET,DOVER-FOXCROFT,PISCATAQUIS,BROWNFIELDS,0.24,TRUE,REMEDY IN PLACE: CLOSED,UNDERTAKING POST-CLOSURE OBLIGATIONS,4/4/2017,45.18369103,-69.22494232,-69.22494231999997,45.183691030000034
REM01892,BUTLERS CLEANERS,BUTLERS SKOWHEGAN,19 WATERVILLE ROAD,SKOWHEGAN,SOMERSET,UNCONTROLLED SITES,0.5,TRUE,REMEDY IN PLACE: CLOSED,UNDERTAKING POST-CLOSURE OBLIGATIONS,10/16/2012,44.762584,-69.715316,-69.71531599999997,44.76258400000006
REM01615,NORTHERN PLAZA,,740 CENTRAL STREET,MILLINOCKET,PENOBSCOT,UNCONTROLLED SITES,7.4,TRUE,REMEDY IN PLACE: CLOSED,UNDERTAKING POST-CLOSURE OBLIGATIONS,8/1/2011,45.65614413,-68.68999391,-68.68999390999994,45.65614413000003
REM01886,HILLSIDE CLEANERS,65 STATE STREET,148 FRENCH STREET,BANGOR,PENOBSCOT,UNCONTROLLED SITES,,FALSE,REMEDY IN PLACE: CLOSED,UNDERTAKING POST-CLOSURE OBLIGATIONS,5/9/2023,44.80252953,-68.76835922,-68.76835921999998,44.80252953000007
REM01609,MAIN STREET CITGO,,147 MAIN STREET,ELLSWORTH,HANCOCK,VRAP,0.2,FALSE,INVESTIGATION STAGE,NEED (AWAITING RESOURCES),12/26/2005,44.541654,-68.423427,-68.42342699999995,44.54165400000005
REM00588,CALDWELL JUNKYARD,,NIKE RD,LIMESTONE,AROOSTOOK,UNCONTROLLED SITES,,FALSE,INVESTIGATION STAGE,NEED (AWAITING RESOURCES),12/14/2017,46.918093,-67.792955,-67.79295499999995,46.918093000000056
REM01976,CHARLIE'S AUTO CENTER,,56 FOSTER STREET,ELLSWORTH,HANCOCK,BROWNFIELDS,0.33,FALSE,REMEDY IN PLACE: CLOSED,NO (OR DE-MINIMIS) CONTAMINATION LEFT ON SITE,12/22/2015,44.53403,-68.41429,-68.41428999999994,44.53403000000003
REM01991,NORTHLAND PROPERTIES,,"210, 211 & 212 MARKET ST",FORT KENT,AROOSTOOK,VRAP,1.8,FALSE,REMEDY IN PLACE: CLOSED,UNDERTAKING POST-CLOSURE OBLIGATIONS,11/21/2010,47.24681553,-68.57673962,-68.57673961999996,47.24681553000005
REM02227,BRINDIS TANNERY EAST,BRINDIS LEATHER CO,INTERSECTION OF ROUTE 140 (MAIN ST) & ROUTE 108 (TURNER ST),CANTON,OXFORD,VRAP,0.5,TRUE,REMEDY IN PLACE: CLOSED,UNDERTAKING POST-CLOSURE OBLIGATIONS,4/6/2014,44.44005601,-70.31509617,-70.31509616999995,44.440056010000035
REM01900,APARTMENT HOUSE,62 MAIN STREET; MERCURY CONTAMINATED BUILDING,62 MAIN ST,FAIRFIELD,SOMERSET,UNCONTROLLED SITES,0.25,FALSE,REMEDY IN PLACE: CLOSED,UNDERTAKING POST-CLOSURE OBLIGATIONS,6/30/2013,44.58237021,-69.60135228,-69.60135227999996,44.58237021000008
REM02028,45 FRONT STREET,CITY OWNED PARKING LOT (AKA MUNICIPAL PARKING) AT 45 FRONT ST; MASKER'S THEATER; THOMPSON'S WHARF,45 FRONT STREET,BELFAST,WALDO,BROWNFIELDS,4.3,TRUE,REMEDY IN PLACE: CLOSED,UNDERTAKING POST-CLOSURE OBLIGATIONS,7/1/2019,44.42843827,-69.00807021,-69.00807020999997,44.42843827000007
REM00460,BREWER COAL TAR,MAPLE STREET PARK,MAPLE ST.,BREWER,PENOBSCOT,VRAP,7.13,TRUE,REMEDY IN PLACE: CLOSED,UNDERTAKING POST-CLOSURE OBLIGATIONS,8/31/2005,44.78989926,-68.76477434,-68.76477433999997,44.78989926000003
REM00511,FAYSCOTT,,"225 SPRING STREET, ROUTE 7",DEXTER,PENOBSCOT,RCRA,,TRUE,REMEDY IN PLACE: CLOSED,UNDERTAKING POST-CLOSURE OBLIGATIONS,8/9/2020,45.01196543,-69.28835414,-69.28835413999997,45.01196543000003
REM00557,L.E. MACNAIR BUILDING,,FRANKLIN STREET,HOULTON,AROOSTOOK,OTHER,2.49,TRUE,TRANSFERRED TO OTHER DIVISION,OIL,4/30/2019,46.121497,-67.84564,-67.84563999999995,46.12149700000003
REM02106,KELLY LUMBER,,43 REALTY ROAD,ASHLAND,AROOSTOOK,VRAP,6.69,TRUE,REMEDY IN PLACE: CLOSED,UNDERTAKING POST-CLOSURE OBLIGATIONS,5/15/2012,46.63233661,-68.43669927,-68.43669926999996,46.63233661000004
REM02111,"REUBEN""S MARKET",,97 ELM STREET,MILO,PISCATAQUIS,VRAP,1.6,FALSE,REMEDY IN PLACE: CLOSED,UNDERTAKING POST-CLOSURE OBLIGATIONS,8/7/2012,45.24510006,-68.9761319,-68.97613189999998,45.24510006000003
REM02112,FIRST PERRY PARCEL,MARINE TRADES CENTER,16 DEEP COVE ROAD,EASTPORT,WASHINGTON,VRAP,8,FALSE,REMEDY IN PLACE: CLOSED,UNDERTAKING POST-CLOSURE OBLIGATIONS,2/4/2013,44.90679511,-67.01383866,-67.01383865999998,44.906795110000076
REM02112,FIRST PERRY PARCEL,MARINE TRADES CENTER,16 DEEP COVE ROAD,EASTPORT,WASHINGTON,BROWNFIELDS,8,FALSE,REMEDY IN PLACE: CLOSED,UNDERTAKING POST-CLOSURE OBLIGATIONS,2/4/2013,44.90679511,-67.01383866,-67.01383865999998,44.906795110000076
REM00519,MARINE TRADE CENTER,THE BOAT SCHOOL; FIRST PERRY REALTY LLC,16 DEEP COVE ROAD,EASTPORT,WASHINGTON,VRAP,20.8,FALSE,REMEDIATION STAGE,ONGOING,12/10/2023,44.90658863,-67.0130876,-67.01308759999995,44.906588630000044
REM00519,MARINE TRADE CENTER,THE BOAT SCHOOL; FIRST PERRY REALTY LLC,16 DEEP COVE ROAD,EASTPORT,WASHINGTON,BROWNFIELDS,20.8,FALSE,REMEDIATION STAGE,ONGOING,12/10/2023,44.90658863,-67.0130876,-67.01308759999995,44.906588630000044
REM02120,GUDROE JUNKYARD,,456 GARLAND ROAD,DEXTER,PENOBSCOT,UNCONTROLLED SITES,2,FALSE,TRANSFERRED TO OTHER DIVISION,OIL,12/19/2007,44.53278919,-69.29339483,-69.29339482999995,44.532789190000074
REM02121,SKIDGEL'S WAREHOUSE,,10 SKIDGEL LANE,FREEDOM,WALDO,UNCONTROLLED SITES,10.8,FALSE,INVESTIGATION STAGE,ONGOING,12/25/2018,44.53299178,-69.29305429,-69.29305428999999,44.53299178000003
REM02122,SHANNON'S REPAIR],,42 AIRPORT DRIVE,HOULTON,AROOSTOOK,BROWNFIELDS,2.98,FALSE,REMEDIATION STAGE,NEED (AWAITING RESOURCES),12/14/2017,46.12929949,-67.78233873,-67.78233872999994,46.12929949000005
REM02123,BRIDGE STREET DUMP,FRASER PAPER BONEYARD,82 BRIDGE AVENUE,MADAWASKA,AROOSTOOK,UNCONTROLLED SITES,1,FALSE,TRANSFERRED TO OTHER DIVISION,SOLID WASTE,10/6/2005,47.35691502,-68.31922555,-68.31922554999994,47.35691502000003
REM02124,OX-YOKE ORIGINALS,,34 WEST MAIN STREET,MILO,PISCATAQUIS,BROWNFIELDS,27,FALSE,INVESTIGATION STAGE,ONGOING,2/10/2011,45.249729,-68.991374,-68.99137399999995,45.24972900000006
REM02132,DW MERRITT SCHOOL,,518 INDIAN RIVER ROAD,ADDISON,WASHINGTON,UNCONTROLLED SITES,1,FALSE,COMPLAINT INVESTIGATED,UNSUBSTANTIATED,1/6/2004,44.62115336,-67.69960677,-67.69960676999995,44.62115336000005
REM02134,EASTLAND DISPOSAL RTE 222,,STETSON ROAD (ROUTE 222),CORINNA,PENOBSCOT,UNCONTROLLED SITES,10,FALSE,INVESTIGATION STAGE,ONGOING,4/17/2000,44.91241871,-69.25371725,-69.25371724999997,44.912418710000054
REM02135,HILLCREST DRIVE DUMP,,HILLCREST DRIVE,WINTER HARBOR,HANCOCK,UNCONTROLLED SITES,1,FALSE,INVESTIGATION STAGE,ONGOING,2/27/2001,44.39946441,-68.07917975,-68.07917974999998,44.399464410000064
REM02135,HILLCREST DRIVE DUMP,,HILLCREST DRIVE,WINTER HARBOR,HANCOCK,LANDFILL CLOSURE,1,FALSE,INVESTIGATION STAGE,ONGOING,2/27/2001,44.39946441,-68.07917975,-68.07917974999998,44.399464410000064
REM02137,WHITING STORE,,139 U.S. ROUTE 1,WHITING,WASHINGTON,VRAP,1,TRUE,REMEDY IN PLACE: CLOSED,UNDERTAKING POST-CLOSURE OBLIGATIONS,12/2/2012,44.79134141,-67.17406066,-67.17406065999995,44.79134141000003
REM02125,ABBIE FOWLER SCHOOL,,15 SCHOOL STREET,SANGERVILLE,PISCATAQUIS,BROWNFIELDS,1,FALSE,REMEDY IN PLACE: CLOSED,NO (OR DE-MINIMIS) CONTAMINATION LEFT ON SITE,3/16/2017,45.1656796,-69.35897615,-69.35897614999993,45.16567960000003
REM02146,CALDWELL PROPERTY,,25 MAIN STREET,MARS HILL,AROOSTOOK,VRAP,0.31,FALSE,REMEDY IN PLACE: CLOSED,UNDERTAKING POST-CLOSURE OBLIGATIONS,12/20/2012,46.51304372,-67.86688423,-67.86688422999998,46.51304372000004
REM02160,TRNC,,15-19 INDUSTRIAL PLAZA DRIVE,BREWER,PENOBSCOT,VRAP,5.88,TRUE,REMEDY IN PLACE: CLOSED,UNDERTAKING POST-CLOSURE OBLIGATIONS,11/1/2012,44.78075185,-68.76305139,-68.76305138999999,44.78075185000006
REM02163,ABBOTT MILL,,20 CHURCH STREET,DEXTER,PENOBSCOT,BROWNFIELDS,2.5,TRUE,REMEDY IN PLACE: CLOSED,UNDERTAKING POST-CLOSURE OBLIGATIONS,6/25/2013,45.0258475,-69.2893473,-69.28934729999997,45.025847500000054
REM02177,ROCKWALL GARDENS,,,GUILFORD,PISCATAQUIS,BROWNFIELDS,,FALSE,INVESTIGATION STAGE,ONGOING,9/28/2012,45.1808618,-69.28405739,-69.28405738999999,45.18086180000006
REM01668,TIBBETTS OIL,,106 WEST BROADWAY,LINCOLN,PENOBSCOT,OTHER,1.8,FALSE,TRANSFERRED TO OTHER DIVISION,OIL,1/22/2007,45.36232382,-68.51480397,-68.51480396999995,45.36232382000003
REM02182,POACHERS PARADISE,,ROUTE 4 / MAIN STREET,MADRID TWP,FRANKLIN,BROWNFIELDS,1.61,TRUE,REMEDY IN PLACE: CLOSED,UNDERTAKING POST-CLOSURE OBLIGATIONS,7/2/2013,44.864002,-70.461063,-70.46106299999997,44.86400200000003
REM02182,POACHERS PARADISE,,ROUTE 4 / MAIN STREET,MADRID TWP,FRANKLIN,VRAP,1.61,TRUE,REMEDY IN PLACE: CLOSED,UNDERTAKING POST-CLOSURE OBLIGATIONS,7/2/2013,44.864002,-70.461063,-70.46106299999997,44.86400200000003
REM02165,CN BROWN PROPERTY,,26 NORTH MAIN STREET,ANSON,SOMERSET,VRAP,0.62,TRUE,REMEDY IN PLACE: CLOSED,UNDERTAKING POST-CLOSURE OBLIGATIONS,3/25/2013,44.855383,-69.897283,-69.89728299999996,44.855383000000074
REM02187,MPS DISTRICT OFFICE,,21 ALDRICH DRIVE,CARIBOU,AROOSTOOK,VRAP,1.7,TRUE,REMEDY IN PLACE: CLOSED,UNDERTAKING POST-CLOSURE OBLIGATIONS,4/21/2013,46.874313,-67.995635,-67.99563499999994,46.87431300000003
REM02202,MASON DAM,GOOSE RIVER HYDRO; SWAN LAKE DAM DUPLICATE OF REM03130,SWAN LAKE AVENUE,BELFAST,WALDO,BROWNFIELDS,3.1,FALSE,INVESTIGATION STAGE,NEED (AWAITING RESOURCES),4/23/2020,44.45711292,-69.00643823,-69.00643822999996,44.45711292000004
REM02204,MILL DAM,GOOSE RIVER HYDRO,67 SWAN LAKE AVENUE,BELFAST,WALDO,BROWNFIELDS,2,FALSE,INVESTIGATION STAGE,NEED (AWAITING RESOURCES),4/23/2020,44.44288157,-68.99969719,-68.99969718999995,44.442881570000054
REM02205,KELLY DAM,GOOSE RIVER HYDRO,SWAN LAKE AVENUE,BELFAST,WALDO,BROWNFIELDS,2.5,FALSE,INVESTIGATION STAGE,NEED (AWAITING RESOURCES),4/23/2020,44.44805883,-69.00206806,-69.00206805999994,44.448058830000036
REM02206,SWAN LAKE DAM,GOOSE RIVER HYDRO,CURTIS AND NORTH SEARSPORT ROAD,SWANVILLE,WALDO,BROWNFIELDS,0.5,FALSE,INVESTIGATION STAGE,NEED (AWAITING RESOURCES),4/23/2020,44.52143313,-68.99742918,-68.99742917999998,44.52143313000005
REM02201,EXXON STATION (29 BELMONT AVE),29 BELMONT AVE,29 BELMONT AVE,BELFAST,WALDO,BROWNFIELDS,0.76,FALSE,REMEDIATION STAGE,NEED (AWAITING RESOURCES),10/28/2013,44.42320688,-69.02765663,-69.02765662999997,44.423206880000066
REM02214,ONESTEEL,,25 AYER STREET,OAKLAND,KENNEBEC,VRAP,2,FALSE,REMEDY IN PLACE: CLOSED,UNDERTAKING POST-CLOSURE OBLIGATIONS,4/3/2014,44.551227,-69.712647,-69.71264699999995,44.55122700000004
REM02195,DAVE'S SERVICE,,320 MAIN STREET,FORT FAIRFIELD,AROOSTOOK,VRAP,0.33,FALSE,REMEDY IN PLACE: CLOSED,UNDERTAKING POST-CLOSURE OBLIGATIONS,5/9/2013,46.772003,-67.831629,-67.83162899999996,46.77200300000004
REM02220,40 MAIN STREET,,40 MAIN ST,BELFAST,WALDO,BROWNFIELDS,0.15,FALSE,INVESTIGATION STAGE,NEED (AWAITING RESOURCES),4/23/2020,44.42707909,-69.00560316,-69.00560315999996,44.42707909000006
REM02216,GLOBAL CNG,,MAINE AVENUE & GODFREY BOULEVARD,BANGOR,PENOBSCOT,VRAP,5,TRUE,REMEDIATION STAGE,NEED (AWAITING RESOURCES),4/6/2020,44.81497174,-68.81157863,-68.81157862999999,44.81497174000003
REM02227,BRINDIS TANNERY EAST,BRINDIS LEATHER CO,INTERSECTION OF ROUTE 140 (MAIN ST) & ROUTE 108 (TURNER ST),CANTON,OXFORD,BROWNFIELDS,0.5,TRUE,REMEDY IN PLACE: CLOSED,UNDERTAKING POST-CLOSURE OBLIGATIONS,4/6/2014,44.44005601,-70.31509617,-70.31509616999995,44.440056010000035
REM02228,BRINDIS TANNERY WEST,BRINDIS LEATHER CO,INTERSECTION ROUTE 140 (MAIN ST) & ROUTE 108 (TURNER ST),CANTON,OXFORD,VRAP,0.4,TRUE,REMEDY IN PLACE: CLOSED,UNDERTAKING POST-CLOSURE OBLIGATIONS,4/7/2014,44.439672,-70.31645,-70.31644999999997,44.43967200000003
REM02228,BRINDIS TANNERY WEST,BRINDIS LEATHER CO,INTERSECTION ROUTE 140 (MAIN ST) & ROUTE 108 (TURNER ST),CANTON,OXFORD,BROWNFIELDS,0.4,TRUE,REMEDY IN PLACE: CLOSED,UNDERTAKING POST-CLOSURE OBLIGATIONS,4/7/2014,44.439672,-70.31645,-70.31644999999997,44.43967200000003
REM02229,BRINDIS TANNERY NORTH,BRINDIS LEATHER CO,INTERSECTION OF ROUTE 140 (MAIN ST) & ROUTE 108 (TURNER ST),CANTON,OXFORD,VRAP,0.2,TRUE,REMEDY IN PLACE: CLOSED,UNDERTAKING POST-CLOSURE OBLIGATIONS,4/8/2014,44.440086,-70.315831,-70.31583099999995,44.440086000000065
REM02229,BRINDIS TANNERY NORTH,BRINDIS LEATHER CO,INTERSECTION OF ROUTE 140 (MAIN ST) & ROUTE 108 (TURNER ST),CANTON,OXFORD,BROWNFIELDS,0.2,TRUE,REMEDY IN PLACE: CLOSED,UNDERTAKING POST-CLOSURE OBLIGATIONS,4/8/2014,44.440086,-70.315831,-70.31583099999995,44.440086000000065
REM00446,RUMFORD NATIONAL GRAPHICS,,21 PATTERSON HILL ROAD,BELFAST,WALDO,VRAP,2.59,TRUE,REMEDY IN PLACE: CLOSED,UNDERTAKING POST-CLOSURE OBLIGATIONS,2/10/2016,44.44022525,-69.00736641,-69.00736640999997,44.440225250000026
REM02231,C & J TRANSPORTATION,TRUCKERS INTERNATIONAL TRUCK STOP PROPERTY,204 CENTER ROAD,FAIRFIELD,SOMERSET,VRAP,,TRUE,REMEDY IN PLACE: CLOSED,UNDERTAKING POST-CLOSURE OBLIGATIONS,9/28/2008,44.59512837,-69.61721247,-69.61721246999997,44.595128370000054
REM02235,PENOBSCOT SHOE,,107 MAIN STREET,OLD TOWN,PENOBSCOT,VRAP,3.379,FALSE,REMEDY IN PLACE: CLOSED,UNDERTAKING POST-CLOSURE OBLIGATIONS,6/27/2013,44.93959958,-68.65047892,-68.65047891999995,44.93959958000005
REM02238,PERKINS LAUNDRY & DRY CLEANING,,29 CHURCH STREET,DEXTER,PENOBSCOT,UNCONTROLLED SITES,0.72,TRUE,REMEDY IN PLACE: CLOSED,UNDERTAKING POST-CLOSURE OBLIGATIONS,10/1/2014,45.025333,-69.288651,-69.28865099999996,45.025333000000046
REM02240,MIDTOWN CLEANERS,RITEWAY DRY CLEANERS,106 13TH AVENUE,MADAWASKA,AROOSTOOK,UNCONTROLLED SITES,,FALSE,REMEDY IN PLACE: CLOSED,NO (OR DE-MINIMIS) CONTAMINATION LEFT ON SITE,9/30/2014,47.35582629,-68.32967721,-68.32967720999994,47.35582629000004
REM02241,GARDEN ISLAND,,40 ELM PLAZA,WATERVILLE,KENNEBEC,UNCONTROLLED SITES,,FALSE,INVESTIGATION STAGE,ONGOING,12/8/2014,44.56731947,-69.63971718,-69.63971717999993,44.56731947000003
REM02243,MEXICO LAUNDROMAT,,108 MAIN STREET,MEXICO,OXFORD,UNCONTROLLED SITES,1.86,TRUE,REMEDY IN PLACE: CLOSED,UNDERTAKING POST-CLOSURE OBLIGATIONS,9/13/2016,44.556127,-70.542234,-70.54223399999995,44.55612700000006
REM02244,KELLEYS LAUNDRY AND DRY CLEANING,"INDUSTRIAL STREET LAUNDROMAT, KELLEYS FABRICARE, KELCLAN INC",654 MAIN STREET,PRESQUE ISLE,AROOSTOOK,UNCONTROLLED SITES,0.22,TRUE,REMEDY IN PLACE: CLOSED,UNDERTAKING POST-CLOSURE OBLIGATIONS,3/4/2019,46.6869696,-68.0127299,-68.01272989999995,46.686969600000054
REM02248,VILLAGE DRY CLEANERS,,150 W. BROADWAY,LINCOLN,PENOBSCOT,UNCONTROLLED SITES,1.43,FALSE,INVESTIGATION STAGE,ONGOING,7/29/2013,45.3611119,-68.5190977,-68.51909769999997,45.361111900000026
REM02251,PRESQUE ISLE IRVING,"52 ACADEMY STREET, LLC",52 ACADEMY STREET,PRESQUE ISLE,AROOSTOOK,VRAP,0.49,TRUE,REMEDY IN PLACE: CLOSED,UNDERTAKING POST-CLOSURE OBLIGATIONS,9/16/2013,46.67832238,-68.00956166,-68.00956165999997,46.678322380000054
REM02252,THE MEADOWS,FORT HOUSING DEVELOPMENT LIMITED PARTNERSHIP,16 HARMONY LANE,FORT FAIRFIELD,AROOSTOOK,VRAP,3.1,TRUE,REMEDY IN PLACE: CLOSED,UNDERTAKING POST-CLOSURE OBLIGATIONS,10/3/2022,46.766255,-67.84423,-67.84422999999998,46.76625500000006
REM02264,STEVE'S CLEANERS,,200 STATE STREET,BANGOR,PENOBSCOT,UNCONTROLLED SITES,0.2,FALSE,REMEDY IN PLACE: CLOSED,NO (OR DE-MINIMIS) CONTAMINATION LEFT ON SITE,6/1/2015,44.80526648,-68.76258662,-68.76258661999998,44.80526648000006
REM02266,COUNTY QUIKSTOP,,907 PRESQUE ISLE ROAD,CARIBOU,AROOSTOOK,VRAP,0.7,TRUE,REMEDY IN PLACE: CLOSED,UNDERTAKING POST-CLOSURE OBLIGATIONS,11/7/2013,46.8111888,-67.99656903,-67.99656902999993,46.811188800000025
REM02276,SURE WINNER FOODS,,750 CENTRAL DRIVE,PRESQUE ISLE,AROOSTOOK,VRAP,0.88,TRUE,REMEDY IN PLACE: CLOSED,UNDERTAKING POST-CLOSURE OBLIGATIONS,12/30/2013,46.69139697,-68.03464377,-68.03464376999995,46.69139697000003
REM02125,ABBIE FOWLER SCHOOL,,15 SCHOOL STREET,SANGERVILLE,PISCATAQUIS,VRAP,1,FALSE,REMEDY IN PLACE: CLOSED,NO (OR DE-MINIMIS) CONTAMINATION LEFT ON SITE,3/16/2017,45.1656796,-69.35897615,-69.35897614999993,45.16567960000003
REM02282,HALFMOON GARDENS,,54 GREENHOUSE LANE,THORNDIKE,WALDO,VRAP,39,FALSE,REMEDY IN PLACE: CLOSED,NO (OR DE-MINIMIS) CONTAMINATION LEFT ON SITE,1/6/2014,44.57763,-69.281349,-69.28134899999998,44.577630000000056
REM02274,OLD UNITY GRAMMAR SCHOOL,,75 SCHOOL STREET,UNITY,WALDO,VRAP,1.8,TRUE,REMEDY IN PLACE: CLOSED,NO (OR DE-MINIMIS) CONTAMINATION LEFT ON SITE,4/21/2016,44.61231801,-69.33761289,-69.33761288999995,44.61231801000008
REM02044,DESMOND'S VARIETY,,84 ELM STREET,GUILFORD,PISCATAQUIS,BROWNFIELDS,0.48,FALSE,INVESTIGATION STAGE,NEED (AWAITING RESOURCES),3/14/2021,45.16604232,-69.40139933,-69.40139932999995,45.16604232000003
REM02044,DESMOND'S VARIETY,,84 ELM STREET,GUILFORD,PISCATAQUIS,VRAP,0.48,FALSE,INVESTIGATION STAGE,NEED (AWAITING RESOURCES),3/14/2021,45.16604232,-69.40139933,-69.40139932999995,45.16604232000003
REM02046,COUNTRY STORE,,2317 US ROUTE 1,SULLIVAN,HANCOCK,BROWNFIELDS,5.5,FALSE,REMEDY IN PLACE: CLOSED,NO (OR DE-MINIMIS) CONTAMINATION LEFT ON SITE,2/21/2013,44.51192752,-68.18030478,-68.18030477999997,44.51192752000003
REM02047,O'NEILL PROPERTY,,202 US ROUTE 1,BARING PLT,WASHINGTON,BROWNFIELDS,6.51,FALSE,REMEDIATION STAGE,ONGOING,4/23/2020,45.130042,-67.315008,-67.31500799999998,45.13004200000006
REM02051,COUNTY YANKEE GROCER,,101 MILITARY STREET,HOULTON,AROOSTOOK,VRAP,1,FALSE,REMEDY IN PLACE: CLOSED,UNDERTAKING POST-CLOSURE OBLIGATIONS,3/8/2012,46.124554,-67.828014,-67.82801399999994,46.124554000000046
REM01964,BRINDIS TANNERY SOUTH,BRINDIS LEATHER CO,INTERSECTION OF ROUTES 140 AND 108,CANTON,OXFORD,BROWNFIELDS,0.9,TRUE,REMEDY IN PLACE: CLOSED,UNDERTAKING POST-CLOSURE OBLIGATIONS,4/6/2014,44.43995836,-70.31576298,-70.31576297999999,44.43995836000005
REM01750,CASCADE WOOLEN MILL,,60 CASCADE MILL ROAD,OAKLAND,KENNEBEC,BROWNFIELDS,4.92,FALSE,REMEDIATION STAGE,NEED (AWAITING RESOURCES),11/21/2024,44.55016605,-69.7082072,-69.70820719999995,44.55016605000003
REM01750,CASCADE WOOLEN MILL,,60 CASCADE MILL ROAD,OAKLAND,KENNEBEC,UNCONTROLLED SITES,4.92,FALSE,REMEDIATION STAGE,NEED (AWAITING RESOURCES),11/21/2024,44.55016605,-69.7082072,-69.70820719999995,44.55016605000003
REM01548,EASTERN FINE PAPER,EASTERN MANUFACTURING FACILITY,517 SOUTH MAIN STREET,BREWER,PENOBSCOT,BROWNFIELDS,41,FALSE,REMEDY IN PLACE: CLOSED,UNDERTAKING POST-CLOSURE OBLIGATIONS,1/22/2013,44.77164995,-68.78382692,-68.78382691999997,44.77164995000004
REM01891,EM BEE CLEANERS,,126 CHURCH STREET,BELFAST,WALDO,UNCONTROLLED SITES,,FALSE,INVESTIGATION STAGE,ONGOING,12/28/2021,44.42576372,-69.00797566,-69.00797565999994,44.42576372000008
REM01891,EM BEE CLEANERS,,126 CHURCH STREET,BELFAST,WALDO,RCRA,,FALSE,INVESTIGATION STAGE,ONGOING,12/28/2021,44.42576372,-69.00797566,-69.00797565999994,44.42576372000008
REM01833,AROOSTOOK DRY CLEANER,,98 SWEDEN ST.,CARIBOU,AROOSTOOK,UNCONTROLLED SITES,0.29,FALSE,REMEDY IN PLACE: CLOSED,UNDERTAKING POST-CLOSURE OBLIGATIONS,5/15/2011,46.85979947,-68.01684787,-68.01684786999994,46.85979947000004
REM02181,MONSON CENTER,,35 GREENVILLE ROAD,MONSON,PISCATAQUIS,BROWNFIELDS,15.4,FALSE,INVESTIGATION STAGE,NEED (AWAITING RESOURCES),4/23/2020,45.288546,-69.502179,-69.50217899999996,45.28854600000005
REM02107,QUODDY BAY LOBSTER,,7 SEA STREET,EASTPORT,WASHINGTON,VRAP,1.24,TRUE,REMEDY IN PLACE: CLOSED,UNDERTAKING POST-CLOSURE OBLIGATIONS,6/5/2012,44.902248,-66.984849,-66.98484899999994,44.90224800000004
REM01780,10 EELWEIR ROAD,,10 EELWEIR ROAD,PITTSFIELD,SOMERSET,VRAP,0.87,FALSE,REMEDY IN PLACE: CLOSED,UNDERTAKING POST-CLOSURE OBLIGATIONS,11/16/2009,44.74854556,-69.40298482,-69.40298481999997,44.748545560000025
REM01651,KINGFIELD CASH FUELS,,10 DEPOT STREET,RANGELEY,FRANKLIN,OTHER,4.14,FALSE,TRANSFERRED TO OTHER DIVISION,OIL,12/31/2006,44.962894,-70.638498,-70.63849799999997,44.96289400000006
REM02147,BASF,"MEARL, EASTPORT PORT AUTHORITY",30 STANIELS RD.,EASTPORT,WASHINGTON,RCRA,37.2,TRUE,REMEDY IN PLACE: CLOSED,UNDERTAKING POST-CLOSURE OBLIGATIONS,1/29/2020,44.901863,-67.003105,-67.00310499999995,44.90186300000005
REM02152,BELFAST BOATYARD (39 AND 41 FRONT ST),BELFAST BOATYARD,39 AND 41 FRONT ST,BELFAST,WALDO,BROWNFIELDS,0.5,TRUE,REMEDY IN PLACE: CLOSED,UNDERTAKING POST-CLOSURE OBLIGATIONS,10/8/2012,44.42887192,-69.00616212,-69.00616211999994,44.42887192000006
REM02150,23 RIDGE ROAD,,23 RIDGE ROAD,CUTLER,WASHINGTON,UNCONTROLLED SITES,,FALSE,INVESTIGATION STAGE,ONGOING,6/18/2012,44.669383,-67.260796,-67.26079599999997,44.66938300000004
REM02150,23 RIDGE ROAD,,23 RIDGE ROAD,CUTLER,WASHINGTON,FEDERAL FACILITIES,,FALSE,INVESTIGATION STAGE,ONGOING,6/18/2012,44.669383,-67.260796,-67.26079599999997,44.66938300000004
REM02172,FAIRFIELD CENTER CCI,,,FAIRFIELD,SOMERSET,UNCONTROLLED SITES,,FALSE,REMEDY IN PLACE: CLOSED,NO (OR DE-MINIMIS) CONTAMINATION LEFT ON SITE,3/15/2017,44.61145177,-69.66562591,-69.66562590999996,44.61145177000003
REM02173,BELFAST BOATYARD (38 WATERVILLE ROAD),,38 WATERVILLE ROAD,BELFAST,WALDO,VRAP,23.92,FALSE,INVESTIGATION STAGE,ONGOING,9/11/2012,44.43934255,-69.03572821,-69.03572820999995,44.43934255000005
REM02174,BELFAST HARBOR WALK,,FRONT STREET,BELFAST,WALDO,VRAP,1.4,TRUE,REMEDY IN PLACE: CLOSED,UNDERTAKING POST-CLOSURE OBLIGATIONS,11/8/2015,44.42879565,-69.00696789,-69.00696788999994,44.42879565000004
REM02176,FORTIN & JEWETT,,175 MAIN STREET,BUCKSPORT,HANCOCK,VRAP,0.36,TRUE,REMEDY IN PLACE: CLOSED,UNDERTAKING POST-CLOSURE OBLIGATIONS,6/11/2013,44.57423688,-68.79938183,-68.79938182999996,44.57423688000006
REM02163,ABBOTT MILL,,20 CHURCH STREET,DEXTER,PENOBSCOT,VRAP,2.5,TRUE,REMEDY IN PLACE: CLOSED,UNDERTAKING POST-CLOSURE OBLIGATIONS,6/25/2013,45.0258475,-69.2893473,-69.28934729999997,45.025847500000054
REM02165,CN BROWN PROPERTY,,26 NORTH MAIN STREET,ANSON,SOMERSET,BROWNFIELDS,0.62,TRUE,REMEDY IN PLACE: CLOSED,UNDERTAKING POST-CLOSURE OBLIGATIONS,3/25/2013,44.855383,-69.897283,-69.89728299999996,44.855383000000074
REM02028,45 FRONT STREET,CITY OWNED PARKING LOT (AKA MUNICIPAL PARKING) AT 45 FRONT ST; MASKER'S THEATER; THOMPSON'S WHARF,45 FRONT STREET,BELFAST,WALDO,BROWNFIELDS,4.3,TRUE,REMEDY IN PLACE: CLOSED,UNDERTAKING POST-CLOSURE OBLIGATIONS,7/1/2019,44.42843827,-69.00807021,-69.00807020999997,44.42843827000007
REM02188,MILLS MARKET,,25 SOUTH MAIN STREET,ANDOVER,OXFORD,VRAP,5.8,FALSE,REMEDY IN PLACE: CLOSED,UNDERTAKING POST-CLOSURE OBLIGATIONS,2/3/2013,44.634761,-70.750109,-70.75010899999995,44.634761000000026
REM02190,"OLIVER STORES, INC.",,548 WILTON ROAD,FARMINGTON,FRANKLIN,VRAP,7.3,TRUE,REMEDY IN PLACE: CLOSED,UNDERTAKING POST-CLOSURE OBLIGATIONS,6/5/2014,44.63275901,-70.1530474,-70.15304739999993,44.63275901000003
REM02191,"OLIVER STORES, INC.",,21 FREEDOM PARKWAY,HERMON,PENOBSCOT,VRAP,3,TRUE,REMEDY IN PLACE: CLOSED,UNDERTAKING POST-CLOSURE OBLIGATIONS,6/25/2013,44.79486295,-68.84567275,-68.84567274999995,44.79486295000004
REM02192,"OLIVER STORES, INC. 2",,1671 HAMMOND STREET,HERMON,PENOBSCOT,VRAP,0.7,TRUE,REMEDY IN PLACE: CLOSED,UNDERTAKING POST-CLOSURE OBLIGATIONS,6/25/2013,44.7942434,-68.8454737,-68.84547369999996,44.79424340000003
REM02218,MOOSEHEAD MANUFACTURING,,123 CHAPIN AVE,MONSON,PISCATAQUIS,BROWNFIELDS,89,FALSE,INVESTIGATION STAGE,ONGOING,2/6/2011,45.29577002,-69.49691208,-69.49691207999996,45.29577002000008
REM02152,BELFAST BOATYARD (39 AND 41 FRONT ST),BELFAST BOATYARD,39 AND 41 FRONT ST,BELFAST,WALDO,VRAP,0.5,TRUE,REMEDY IN PLACE: CLOSED,UNDERTAKING POST-CLOSURE OBLIGATIONS,10/8/2012,44.42887192,-69.00616212,-69.00616211999994,44.42887192000006
REM02221,WHITE CANOE,,,OLD TOWN,PENOBSCOT,BROWNFIELDS,,FALSE,REMEDY IN PLACE: CLOSED,NO (OR DE-MINIMIS) CONTAMINATION LEFT ON SITE,4/23/2020,44.93636526,-68.64928581,-68.64928580999998,44.93636526000006
REM01964,BRINDIS TANNERY SOUTH,BRINDIS LEATHER CO,INTERSECTION OF ROUTES 140 AND 108,CANTON,OXFORD,VRAP,0.9,TRUE,REMEDY IN PLACE: CLOSED,UNDERTAKING POST-CLOSURE OBLIGATIONS,4/6/2014,44.43995836,-70.31576298,-70.31576297999999,44.43995836000005
REM02223,RED LIQUOR LAGOON,GNP RED LIQUOR LAGOON,,MILLINOCKET,PENOBSCOT,UNCONTROLLED SITES,,FALSE,REMEDY IN PLACE: CLOSED,NO (OR DE-MINIMIS) CONTAMINATION LEFT ON SITE,11/30/2018,45.64059055,-68.70306631,-68.70306630999994,45.64059055000007
REM02223,RED LIQUOR LAGOON,GNP RED LIQUOR LAGOON,,MILLINOCKET,PENOBSCOT,VRAP,,FALSE,REMEDY IN PLACE: CLOSED,NO (OR DE-MINIMIS) CONTAMINATION LEFT ON SITE,11/30/2018,45.64059055,-68.70306631,-68.70306630999994,45.64059055000007
REM02275,ANDYS AUTO SALES,ANDY'S AUTO SALES & SERVICE,121 WEST MAIN STREET,FORT KENT,AROOSTOOK,VRAP,0.67,TRUE,REMEDY IN PLACE: CLOSED,UNDERTAKING POST-CLOSURE OBLIGATIONS,4/21/2014,47.25044155,-68.59790068,-68.59790067999995,47.25044155000006
REM02271,GUILFORD MILL,,1 ARNOLD STREET,EASTPORT,WASHINGTON,BROWNFIELDS,8,FALSE,REMEDIATION STAGE,NEED (AWAITING RESOURCES),7/29/2014,44.92734233,-67.02603088,-67.02603087999995,44.927342330000045
REM02279,IRVING TANNING ANNEX,,24 PLEASANT STREET,HARTLAND,SOMERSET,UNCONTROLLED SITES,60,TRUE,REMEDY IN PLACE: CLOSED,NO (OR DE-MINIMIS) CONTAMINATION LEFT ON SITE,5/31/2019,44.88351642,-69.45894143,-69.45894142999998,44.883516420000035
REM02289,FAIRPOINT POLE YARD,,240 UNION STREET,CALAIS,WASHINGTON,VRAP,1.02,FALSE,INVESTIGATION STAGE,ONGOING,3/4/2014,45.181069,-67.287581,-67.28758099999993,45.181069000000036
REM02215,MACHIAS 5 & 10,3 WATER STREET,6 COLONIAL WAY,MACHIAS,WASHINGTON,VRAP,0.24,TRUE,REMEDY IN PLACE: CLOSED,UNDERTAKING POST-CLOSURE OBLIGATIONS,4/23/2014,44.714114,-67.458783,-67.45878299999998,44.71411400000005
REM01975,ANTONE'S TRIANGLE STORE,,423 U.S. ROUTE 1,PEMBROKE,WASHINGTON,VRAP,0.5,FALSE,REMEDY IN PLACE: CLOSED,UNDERTAKING POST-CLOSURE OBLIGATIONS,8/25/2011,44.94748495,-67.18249778,-67.18249777999995,44.947484950000046
